{"type":"FeatureCollection", "features": [
{"type":"Feature","geometry":{"type":"Point","coordinates":[83.3471017321639,28.2196062905608]},"properties":{"longitude":83.3471017321639,"latitude":28.2196062905608,"what3words":"scooping.bookcases.spine","hf_type":"Sub Center","dist_name":"Baglung","vdc_name1":"Righa","vdc_code1":"W-DHA-45-050","cartodb_id":4274,"created_at":"2015-04-28T00:00:00.000Z","updated_at":"2015-04-28T00:00:00.000Z"}},
{"type":"Feature","geometry":{"type":"Point","coordinates":[84.2502853800957,28.5381774408118]},"properties":{"longitude":84.2502853800957,"latitude":28.5381774408118,"what3words":"perceives.orientated.ruddy","hf_type":"DPHO","dist_name":"Manang","vdc_name1":"Chame","vdc_code1":"W-GAN-41-002","cartodb_id":6793,"created_at":"2015-04-28T00:00:00.000Z","updated_at":"2015-04-28T00:00:00.000Z"}},
{"type":"Feature","geometry":{"type":"Point","coordinates":[87.8913303570401,27.348080924402]},"properties":{"longitude":87.8913303570401,"latitude":27.348080924402,"what3words":"mourners.talent.query","hf_type":"Sub Health Post","dist_name":"Taplejung","vdc_name1":"Mehele","vdc_code1":"E-MEC-01-022","cartodb_id":8865,"created_at":"2015-04-28T00:00:00.000Z","updated_at":"2015-04-28T00:00:00.000Z"}},
{"type":"Feature","geometry":{"type":"Point","coordinates":[86.6896520472707,27.063160929662]},"properties":{"longitude":86.6896520472707,"latitude":27.063160929662,"what3words":"ambulances.purposeful.hobbyists","hf_type":"Sub Health Post","dist_name":"Udayapur","vdc_name1":"Jante","vdc_code1":"E-SAG-14-015","cartodb_id":1,"created_at":"2015-04-28T00:00:00.000Z","updated_at":"2015-04-28T00:00:00.000Z"}},
{"type":"Feature","geometry":{"type":"Point","coordinates":[86.6535068681703,26.9430706129462]},"properties":{"longitude":86.6535068681703,"latitude":26.9430706129462,"what3words":"beamy.lint.remarking","hf_type":"Health Post","dist_name":"Udayapur","vdc_name1":"Rauta","vdc_code1":"E-SAG-14-029","cartodb_id":2,"created_at":"2015-04-28T00:00:00.000Z","updated_at":"2015-04-28T00:00:00.000Z"}},
{"type":"Feature","geometry":{"type":"Point","coordinates":[86.5730719858558,26.9757556339354]},"properties":{"longitude":86.5730719858558,"latitude":26.9757556339354,"what3words":"selected.excitedly.abroad","hf_type":"Sub Health Post","dist_name":"Udayapur","vdc_name1":"Dumre","vdc_code1":"E-SAG-14-010","cartodb_id":3,"created_at":"2015-04-28T00:00:00.000Z","updated_at":"2015-04-28T00:00:00.000Z"}},
{"type":"Feature","geometry":{"type":"Point","coordinates":[84.8399759038733,27.9215817167597]},"properties":{"longitude":84.8399759038733,"latitude":27.9215817167597,"what3words":"areas.recounted.developer","hf_type":"Sub Health Post","dist_name":"Dhading","vdc_name1":"Dhola","vdc_code1":"C-BAG-30-010","cartodb_id":4,"created_at":"2015-04-28T00:00:00.000Z","updated_at":"2015-04-28T00:00:00.000Z"}},
{"type":"Feature","geometry":{"type":"Point","coordinates":[80.8882893630658,29.3917133071093]},"properties":{"longitude":80.8882893630658,"latitude":29.3917133071093,"what3words":"bloke.disclaimers.dropping","hf_type":"Sub Center","dist_name":"Doti","vdc_name1":"Barchhen","vdc_code1":"F-SET-70-003","cartodb_id":5,"created_at":"2015-04-28T00:00:00.000Z","updated_at":"2015-04-28T00:00:00.000Z"}},
{"type":"Feature","geometry":{"type":"Point","coordinates":[82.1382443298443,29.345255874083]},"properties":{"longitude":82.1382443298443,"latitude":29.345255874083,"what3words":"salads.cluttered.downfall","hf_type":"DPHO","dist_name":"Jumla","vdc_name1":"Chandannath","vdc_code1":"M-KAR-63-004","cartodb_id":6,"created_at":"2015-04-28T00:00:00.000Z","updated_at":"2015-04-28T00:00:00.000Z"}},
{"type":"Feature","geometry":{"type":"Point","coordinates":[85.371453361535,27.3368730299674]},"properties":{"longitude":85.371453361535,"latitude":27.3368730299674,"what3words":"confiding.ventilating.cloying","hf_type":"Sub Center","dist_name":"Makwanpur","vdc_name1":"Faparbari","vdc_code1":"C-NAR-31-016","cartodb_id":7,"created_at":"2015-04-28T00:00:00.000Z","updated_at":"2015-04-28T00:00:00.000Z"}},
{"type":"Feature","geometry":{"type":"Point","coordinates":[83.65256004158,28.1362179599193]},"properties":{"longitude":83.65256004158,"latitude":28.1362179599193,"what3words":"raising.mistreat.consumables","hf_type":"Sub Health Post","dist_name":"Parbat","vdc_name1":"Kurgha","vdc_code1":"W-DHA-44-031","cartodb_id":8,"created_at":"2015-04-28T00:00:00.000Z","updated_at":"2015-04-28T00:00:00.000Z"}},
{"type":"Feature","geometry":{"type":"Point","coordinates":[85.290935706048,28.1005200008265]},"properties":{"longitude":85.290935706048,"latitude":28.1005200008265,"what3words":"flapjacks.composition.nutshell","hf_type":"DPHO","dist_name":"Rasuwa","vdc_name1":"Dhunche","vdc_code1":"C-BAG-29-005","cartodb_id":9,"created_at":"2015-04-28T00:00:00.000Z","updated_at":"2015-04-28T00:00:00.000Z"}},
{"type":"Feature","geometry":{"type":"Point","coordinates":[85.8123270049515,27.3637074455851]},"properties":{"longitude":85.8123270049515,"latitude":27.3637074455851,"what3words":"reaches.tethered.restore","hf_type":"Health Post","dist_name":"Sindhuli","vdc_name1":"Bastipur","vdc_code1":"C-JAN-20-006","cartodb_id":10,"created_at":"2015-04-28T00:00:00.000Z","updated_at":"2015-04-28T00:00:00.000Z"}},
{"type":"Feature","geometry":{"type":"Point","coordinates":[86.1973156692146,26.731898455477]},"properties":{"longitude":86.1973156692146,"latitude":26.731898455477,"what3words":"snorkelers.waffled.tornado","hf_type":"Sub Health Post","dist_name":"Siraha","vdc_name1":"Chatari","vdc_code1":"E-SAG-16-027","cartodb_id":11,"created_at":"2015-04-28T00:00:00.000Z","updated_at":"2015-04-28T00:00:00.000Z"}},
{"type":"Feature","geometry":{"type":"Point","coordinates":[81.9000806974564,28.4779773468429]},"properties":{"longitude":81.9000806974564,"latitude":28.4779773468429,"what3words":"turnstile.community.homebound","hf_type":"Sub Health Post","dist_name":"Surkhet","vdc_name1":"Ghumkhahare","vdc_code1":"M-BHE-59-019","cartodb_id":12,"created_at":"2015-04-28T00:00:00.000Z","updated_at":"2015-04-28T00:00:00.000Z"}},
{"type":"Feature","geometry":{"type":"Point","coordinates":[87.5441423793123,27.4455780600627]},"properties":{"longitude":87.5441423793123,"latitude":27.4455780600627,"what3words":"enlighten.chug.cranberries","hf_type":"Sub Center","dist_name":"Taplejung","vdc_name1":"Thukima","vdc_code1":"E-MEC-01-047","cartodb_id":13,"created_at":"2015-04-28T00:00:00.000Z","updated_at":"2015-04-28T00:00:00.000Z"}},
{"type":"Feature","geometry":{"type":"Point","coordinates":[86.7019488604974,26.8094242761919]},"properties":{"longitude":86.7019488604974,"latitude":26.8094242761919,"what3words":"farces.descending.doubling","hf_type":"DPHO","dist_name":"Udayapur","vdc_name1":"TriyugaN.P.","vdc_code1":"E-SAG-14-043","cartodb_id":14,"created_at":"2015-04-28T00:00:00.000Z","updated_at":"2015-04-28T00:00:00.000Z"}},
{"type":"Feature","geometry":{"type":"Point","coordinates":[86.7019488604974,26.8094242761919]},"properties":{"longitude":86.7019488604974,"latitude":26.8094242761919,"what3words":"farces.descending.doubling","hf_type":"DPHO","dist_name":"Udayapur","vdc_name1":"TriyugaN.P.","vdc_code1":"E-SAG-14-043","cartodb_id":15,"created_at":"2015-04-28T00:00:00.000Z","updated_at":"2015-04-28T00:00:00.000Z"}},
{"type":"Feature","geometry":{"type":"Point","coordinates":[86.7019488604974,26.8094242761919]},"properties":{"longitude":86.7019488604974,"latitude":26.8094242761919,"what3words":"farces.descending.doubling","hf_type":"DPHO","dist_name":"Udayapur","vdc_name1":"TriyugaN.P.","vdc_code1":"E-SAG-14-043","cartodb_id":16,"created_at":"2015-04-28T00:00:00.000Z","updated_at":"2015-04-28T00:00:00.000Z"}},
{"type":"Feature","geometry":{"type":"Point","coordinates":[86.7019488604974,26.8094242761919]},"properties":{"longitude":86.7019488604974,"latitude":26.8094242761919,"what3words":"farces.descending.doubling","hf_type":"DPHO","dist_name":"Udayapur","vdc_name1":"TriyugaN.P.","vdc_code1":"E-SAG-14-043","cartodb_id":17,"created_at":"2015-04-28T00:00:00.000Z","updated_at":"2015-04-28T00:00:00.000Z"}},
{"type":"Feature","geometry":{"type":"Point","coordinates":[86.7019488604974,26.8094242761919]},"properties":{"longitude":86.7019488604974,"latitude":26.8094242761919,"what3words":"farces.descending.doubling","hf_type":"DPHO","dist_name":"Udayapur","vdc_name1":"TriyugaN.P.","vdc_code1":"E-SAG-14-043","cartodb_id":18,"created_at":"2015-04-28T00:00:00.000Z","updated_at":"2015-04-28T00:00:00.000Z"}},
{"type":"Feature","geometry":{"type":"Point","coordinates":[86.7019488604974,26.8094242761919]},"properties":{"longitude":86.7019488604974,"latitude":26.8094242761919,"what3words":"farces.descending.doubling","hf_type":"DPHO","dist_name":"Udayapur","vdc_name1":"TriyugaN.P.","vdc_code1":"E-SAG-14-043","cartodb_id":19,"created_at":"2015-04-28T00:00:00.000Z","updated_at":"2015-04-28T00:00:00.000Z"}},
{"type":"Feature","geometry":{"type":"Point","coordinates":[86.7019488604974,26.8094242761919]},"properties":{"longitude":86.7019488604974,"latitude":26.8094242761919,"what3words":"farces.descending.doubling","hf_type":"DPHO","dist_name":"Udayapur","vdc_name1":"TriyugaN.P.","vdc_code1":"E-SAG-14-043","cartodb_id":20,"created_at":"2015-04-28T00:00:00.000Z","updated_at":"2015-04-28T00:00:00.000Z"}},
{"type":"Feature","geometry":{"type":"Point","coordinates":[86.7019488604974,26.8094242761919]},"properties":{"longitude":86.7019488604974,"latitude":26.8094242761919,"what3words":"farces.descending.doubling","hf_type":"DPHO","dist_name":"Udayapur","vdc_name1":"TriyugaN.P.","vdc_code1":"E-SAG-14-043","cartodb_id":21,"created_at":"2015-04-28T00:00:00.000Z","updated_at":"2015-04-28T00:00:00.000Z"}},
{"type":"Feature","geometry":{"type":"Point","coordinates":[86.7019488604974,26.8094242761919]},"properties":{"longitude":86.7019488604974,"latitude":26.8094242761919,"what3words":"farces.descending.doubling","hf_type":"DPHO","dist_name":"Udayapur","vdc_name1":"TriyugaN.P.","vdc_code1":"E-SAG-14-043","cartodb_id":22,"created_at":"2015-04-28T00:00:00.000Z","updated_at":"2015-04-28T00:00:00.000Z"}},
{"type":"Feature","geometry":{"type":"Point","coordinates":[85.9199006128832,26.7531963960518]},"properties":{"longitude":85.9199006128832,"latitude":26.7531963960518,"what3words":"blackboards.blasting.granaries","hf_type":"DPHO","dist_name":"Dhanusa","vdc_name1":"JanakpurN.P.","vdc_code1":"C-JAN-17-048","cartodb_id":23,"created_at":"2015-04-28T00:00:00.000Z","updated_at":"2015-04-28T00:00:00.000Z"}},
{"type":"Feature","geometry":{"type":"Point","coordinates":[84.3569335692395,28.2399930114065]},"properties":{"longitude":84.3569335692395,"latitude":28.2399930114065,"what3words":"octave.imitate.glimpses","hf_type":"DPHO","dist_name":"Lamjung","vdc_name1":"Besishahar","vdc_code1":"W-GAN-37-007","cartodb_id":24,"created_at":"2015-04-28T00:00:00.000Z","updated_at":"2015-04-28T00:00:00.000Z"}},
{"type":"Feature","geometry":{"type":"Point","coordinates":[87.4984231642738,26.4713038700407]},"properties":{"longitude":87.4984231642738,"latitude":26.4713038700407,"what3words":"complied.measurements.flatbreads","hf_type":"Hospital","dist_name":"Morang","vdc_name1":"Rangeli","vdc_code1":"E-KOS-05-050","cartodb_id":25,"created_at":"2015-04-28T00:00:00.000Z","updated_at":"2015-04-28T00:00:00.000Z"}},
{"type":"Feature","geometry":{"type":"Point","coordinates":[84.5801545544744,27.3607386706306]},"properties":{"longitude":84.5801545544744,"latitude":27.3607386706306,"what3words":"dribble.insulator.mower","hf_type":"Supply Center","dist_name":"Parsa","vdc_name1":"Thori","vdc_code1":"C-NAR-34-080","cartodb_id":26,"created_at":"2015-04-28T00:00:00.000Z","updated_at":"2015-04-28T00:00:00.000Z"}},
{"type":"Feature","geometry":{"type":"Point","coordinates":[86.7624668253385,26.5456711966831]},"properties":{"longitude":86.7624668253385,"latitude":26.5456711966831,"what3words":"relinquishing.luckiest.lightened","hf_type":"DPHO","dist_name":"Saptari","vdc_name1":"RajbirajN.P.","vdc_code1":"E-SAG-15-097","cartodb_id":27,"created_at":"2015-04-28T00:00:00.000Z","updated_at":"2015-04-28T00:00:00.000Z"}},
{"type":"Feature","geometry":{"type":"Point","coordinates":[86.7019488604974,26.8094242761919]},"properties":{"longitude":86.7019488604974,"latitude":26.8094242761919,"what3words":"farces.descending.doubling","hf_type":"DPHO","dist_name":"Udayapur","vdc_name1":"TriyugaN.P.","vdc_code1":"E-SAG-14-043","cartodb_id":28,"created_at":"2015-04-28T00:00:00.000Z","updated_at":"2015-04-28T00:00:00.000Z"}},
{"type":"Feature","geometry":{"type":"Point","coordinates":[86.6531334993485,26.8132941402842]},"properties":{"longitude":86.6531334993485,"latitude":26.8132941402842,"what3words":"infinity.reclamation.detriment","hf_type":"Hospital","dist_name":"Udayapur","vdc_name1":"TriyugaN.P.","vdc_code1":"E-SAG-14-043","cartodb_id":29,"created_at":"2015-04-28T00:00:00.000Z","updated_at":"2015-04-28T00:00:00.000Z"}},
{"type":"Feature","geometry":{"type":"Point","coordinates":[86.8872584521162,26.8110603645525]},"properties":{"longitude":86.8872584521162,"latitude":26.8110603645525,"what3words":"intimidates.soundbites.angers","hf_type":"Primary Health Center","dist_name":"Udayapur","vdc_name1":"Beltar","vdc_code1":"E-SAG-14-007","cartodb_id":30,"created_at":"2015-04-28T00:00:00.000Z","updated_at":"2015-04-28T00:00:00.000Z"}},
{"type":"Feature","geometry":{"type":"Point","coordinates":[86.3475596210542,27.1320941928633]},"properties":{"longitude":86.3475596210542,"latitude":27.1320941928633,"what3words":"damply.fuzzy.gushes","hf_type":"Health Post","dist_name":"Udayapur","vdc_name1":"Yayankhu","vdc_code1":"E-SAG-14-045","cartodb_id":31,"created_at":"2015-04-28T00:00:00.000Z","updated_at":"2015-04-28T00:00:00.000Z"}},
{"type":"Feature","geometry":{"type":"Point","coordinates":[86.5613539582077,27.0924098666168]},"properties":{"longitude":86.5613539582077,"latitude":27.0924098666168,"what3words":"readable.employs.gums","hf_type":"Health Post","dist_name":"Udayapur","vdc_name1":"Rupatar","vdc_code1":"E-SAG-14-031","cartodb_id":32,"created_at":"2015-04-28T00:00:00.000Z","updated_at":"2015-04-28T00:00:00.000Z"}},
{"type":"Feature","geometry":{"type":"Point","coordinates":[86.5347872423339,27.0611590161548]},"properties":{"longitude":86.5347872423339,"latitude":27.0611590161548,"what3words":"tastiest.decorating.watchwords","hf_type":"Health Post","dist_name":"Udayapur","vdc_name1":"Lekhgau","vdc_code1":"E-SAG-14-022","cartodb_id":33,"created_at":"2015-04-28T00:00:00.000Z","updated_at":"2015-04-28T00:00:00.000Z"}},
{"type":"Feature","geometry":{"type":"Point","coordinates":[86.6832373413379,27.0885819551621]},"properties":{"longitude":86.6832373413379,"latitude":27.0885819551621,"what3words":"partridges.subordinates.laughed","hf_type":"Health Post","dist_name":"Udayapur","vdc_name1":"Balamta","vdc_code1":"E-SAG-14-002","cartodb_id":34,"created_at":"2015-04-28T00:00:00.000Z","updated_at":"2015-04-28T00:00:00.000Z"}},
{"type":"Feature","geometry":{"type":"Point","coordinates":[86.6741592902035,27.0168797544859]},"properties":{"longitude":86.6741592902035,"latitude":27.0168797544859,"what3words":"creeks.mushy.cuisine","hf_type":"Health Post","dist_name":"Udayapur","vdc_name1":"Bhuttar","vdc_code1":"E-SAG-14-008","cartodb_id":35,"created_at":"2015-04-28T00:00:00.000Z","updated_at":"2015-04-28T00:00:00.000Z"}},
{"type":"Feature","geometry":{"type":"Point","coordinates":[86.507383016698,26.9592579181148]},"properties":{"longitude":86.507383016698,"latitude":26.9592579181148,"what3words":"midbrain.diagnose.barons","hf_type":"Health Post","dist_name":"Udayapur","vdc_name1":"Pachchawati","vdc_code1":"E-SAG-14-027","cartodb_id":36,"created_at":"2015-04-28T00:00:00.000Z","updated_at":"2015-04-28T00:00:00.000Z"}},
{"type":"Feature","geometry":{"type":"Point","coordinates":[86.6667388655,26.7789579720498]},"properties":{"longitude":86.6667388655,"latitude":26.7789579720498,"what3words":"adjudicator.fertile.suntanned","hf_type":"Health Post","dist_name":"Udayapur","vdc_name1":"TriyugaN.P.","vdc_code1":"E-SAG-14-043","cartodb_id":37,"created_at":"2015-04-28T00:00:00.000Z","updated_at":"2015-04-28T00:00:00.000Z"}},
{"type":"Feature","geometry":{"type":"Point","coordinates":[86.6535068681703,26.9430706129462]},"properties":{"longitude":86.6535068681703,"latitude":26.9430706129462,"what3words":"beamy.lint.remarking","hf_type":"Health Post","dist_name":"Udayapur","vdc_name1":"Rauta","vdc_code1":"E-SAG-14-029","cartodb_id":38,"created_at":"2015-04-28T00:00:00.000Z","updated_at":"2015-04-28T00:00:00.000Z"}},
{"type":"Feature","geometry":{"type":"Point","coordinates":[87.0186229144862,26.8073992456399]},"properties":{"longitude":87.0186229144862,"latitude":26.8073992456399,"what3words":"spectating.rooting.campers","hf_type":"Health Post","dist_name":"Udayapur","vdc_name1":"Thoksila","vdc_code1":"E-SAG-14-041","cartodb_id":39,"created_at":"2015-04-28T00:00:00.000Z","updated_at":"2015-04-28T00:00:00.000Z"}},
{"type":"Feature","geometry":{"type":"Point","coordinates":[86.3971038633267,26.9856049092741]},"properties":{"longitude":86.3971038633267,"latitude":26.9856049092741,"what3words":"backhanded.unchained.certifies","hf_type":"Sub Health Post","dist_name":"Udayapur","vdc_name1":"Katari","vdc_code1":"E-SAG-14-017","cartodb_id":40,"created_at":"2015-04-28T00:00:00.000Z","updated_at":"2015-04-28T00:00:00.000Z"}},
{"type":"Feature","geometry":{"type":"Point","coordinates":[86.4438280069778,26.9718639362014]},"properties":{"longitude":86.4438280069778,"latitude":26.9718639362014,"what3words":"squashes.eyepiece.malt","hf_type":"Sub Health Post","dist_name":"Udayapur","vdc_name1":"Risku","vdc_code1":"E-SAG-14-030","cartodb_id":41,"created_at":"2015-04-28T00:00:00.000Z","updated_at":"2015-04-28T00:00:00.000Z"}},
{"type":"Feature","geometry":{"type":"Point","coordinates":[86.4813460653951,27.0257489572418]},"properties":{"longitude":86.4813460653951,"latitude":27.0257489572418,"what3words":"aforesaid.magpie.outlandish","hf_type":"Sub Health Post","dist_name":"Udayapur","vdc_name1":"Tawashree","vdc_code1":"E-SAG-14-039","cartodb_id":42,"created_at":"2015-04-28T00:00:00.000Z","updated_at":"2015-04-28T00:00:00.000Z"}},
{"type":"Feature","geometry":{"type":"Point","coordinates":[86.4922167387753,27.0795302387643]},"properties":{"longitude":86.4922167387753,"latitude":27.0795302387643,"what3words":"scarring.unreserved.embarrasses","hf_type":"Sub Health Post","dist_name":"Udayapur","vdc_name1":"Okhale","vdc_code1":"E-SAG-14-026","cartodb_id":43,"created_at":"2015-04-28T00:00:00.000Z","updated_at":"2015-04-28T00:00:00.000Z"}},
{"type":"Feature","geometry":{"type":"Point","coordinates":[86.4678326991655,27.0635166886738]},"properties":{"longitude":86.4678326991655,"latitude":27.0635166886738,"what3words":"retrieval.depleted.angled","hf_type":"Sub Health Post","dist_name":"Udayapur","vdc_name1":"Limpatar","vdc_code1":"E-SAG-14-023","cartodb_id":44,"created_at":"2015-04-28T00:00:00.000Z","updated_at":"2015-04-28T00:00:00.000Z"}},
{"type":"Feature","geometry":{"type":"Point","coordinates":[86.4323009544985,27.0554161001776]},"properties":{"longitude":86.4323009544985,"latitude":27.0554161001776,"what3words":"spendthrift.brawn.paddle","hf_type":"Sub Health Post","dist_name":"Udayapur","vdc_name1":"Sirise","vdc_code1":"E-SAG-14-035","cartodb_id":45,"created_at":"2015-04-28T00:00:00.000Z","updated_at":"2015-04-28T00:00:00.000Z"}},
{"type":"Feature","geometry":{"type":"Point","coordinates":[86.4320099661044,27.1131368521594]},"properties":{"longitude":86.4320099661044,"latitude":27.1131368521594,"what3words":"pretends.groove.recliners","hf_type":"Sub Health Post","dist_name":"Udayapur","vdc_name1":"ShorungChabise","vdc_code1":"E-SAG-14-033","cartodb_id":46,"created_at":"2015-04-28T00:00:00.000Z","updated_at":"2015-04-28T00:00:00.000Z"}},
{"type":"Feature","geometry":{"type":"Point","coordinates":[86.4006801024917,27.148833740486]},"properties":{"longitude":86.4006801024917,"latitude":27.148833740486,"what3words":"mushy.clutter.migrated","hf_type":"Sub Health Post","dist_name":"Udayapur","vdc_name1":"Lekhani","vdc_code1":"E-SAG-14-021","cartodb_id":47,"created_at":"2015-04-28T00:00:00.000Z","updated_at":"2015-04-28T00:00:00.000Z"}},
{"type":"Feature","geometry":{"type":"Point","coordinates":[86.563483023581,27.1316266780692]},"properties":{"longitude":86.563483023581,"latitude":27.1316266780692,"what3words":"dupe.puncher.upgraded","hf_type":"Sub Health Post","dist_name":"Udayapur","vdc_name1":"Thanagau","vdc_code1":"E-SAG-14-040","cartodb_id":48,"created_at":"2015-04-28T00:00:00.000Z","updated_at":"2015-04-28T00:00:00.000Z"}},
{"type":"Feature","geometry":{"type":"Point","coordinates":[86.5855458491816,27.1382808054746]},"properties":{"longitude":86.5855458491816,"latitude":27.1382808054746,"what3words":"limped.recollects.visibility","hf_type":"Sub Health Post","dist_name":"Udayapur","vdc_name1":"Basabote","vdc_code1":"E-SAG-14-005","cartodb_id":49,"created_at":"2015-04-28T00:00:00.000Z","updated_at":"2015-04-28T00:00:00.000Z"}},
{"type":"Feature","geometry":{"type":"Point","coordinates":[86.6379580701251,27.1215915166538]},"properties":{"longitude":86.6379580701251,"latitude":27.1215915166538,"what3words":"classification.paddled.additives","hf_type":"Sub Health Post","dist_name":"Udayapur","vdc_name1":"Tamlida","vdc_code1":"E-SAG-14-037","cartodb_id":50,"created_at":"2015-04-28T00:00:00.000Z","updated_at":"2015-04-28T00:00:00.000Z"}},
{"type":"Feature","geometry":{"type":"Point","coordinates":[86.5971014169547,27.1097695081969]},"properties":{"longitude":86.5971014169547,"latitude":27.1097695081969,"what3words":"ultra.exclaim.garnishes","hf_type":"Sub Health Post","dist_name":"Udayapur","vdc_name1":"Baraha","vdc_code1":"E-SAG-14-003","cartodb_id":51,"created_at":"2015-04-28T00:00:00.000Z","updated_at":"2015-04-28T00:00:00.000Z"}},
{"type":"Feature","geometry":{"type":"Point","coordinates":[86.5801032635744,27.0621446500329]},"properties":{"longitude":86.5801032635744,"latitude":27.0621446500329,"what3words":"bandages.tutored.helpfulness","hf_type":"Sub Health Post","dist_name":"Udayapur","vdc_name1":"Iname","vdc_code1":"E-SAG-14-013","cartodb_id":52,"created_at":"2015-04-28T00:00:00.000Z","updated_at":"2015-04-28T00:00:00.000Z"}},
{"type":"Feature","geometry":{"type":"Point","coordinates":[86.5598447428266,27.0159712481279]},"properties":{"longitude":86.5598447428266,"latitude":27.0159712481279,"what3words":"taxied.paper.arranges","hf_type":"Sub Health Post","dist_name":"Udayapur","vdc_name1":"Barai","vdc_code1":"E-SAG-14-004","cartodb_id":53,"created_at":"2015-04-28T00:00:00.000Z","updated_at":"2015-04-28T00:00:00.000Z"}},
{"type":"Feature","geometry":{"type":"Point","coordinates":[86.6227107937292,27.033720089046]},"properties":{"longitude":86.6227107937292,"latitude":27.033720089046,"what3words":"reconnects.daytime.ladybug","hf_type":"Sub Health Post","dist_name":"Udayapur","vdc_name1":"Nametar","vdc_code1":"E-SAG-14-025","cartodb_id":54,"created_at":"2015-04-28T00:00:00.000Z","updated_at":"2015-04-28T00:00:00.000Z"}},
{"type":"Feature","geometry":{"type":"Point","coordinates":[86.5730719858558,26.9757556339354]},"properties":{"longitude":86.5730719858558,"latitude":26.9757556339354,"what3words":"selected.excitedly.abroad","hf_type":"Sub Health Post","dist_name":"Udayapur","vdc_name1":"Dumre","vdc_code1":"E-SAG-14-010","cartodb_id":55,"created_at":"2015-04-28T00:00:00.000Z","updated_at":"2015-04-28T00:00:00.000Z"}},
{"type":"Feature","geometry":{"type":"Point","coordinates":[86.6896520472707,27.063160929662]},"properties":{"longitude":86.6896520472707,"latitude":27.063160929662,"what3words":"ambulances.purposeful.hobbyists","hf_type":"Sub Health Post","dist_name":"Udayapur","vdc_name1":"Jante","vdc_code1":"E-SAG-14-015","cartodb_id":56,"created_at":"2015-04-28T00:00:00.000Z","updated_at":"2015-04-28T00:00:00.000Z"}},
{"type":"Feature","geometry":{"type":"Point","coordinates":[86.712584635658,27.0471071132684]},"properties":{"longitude":86.712584635658,"latitude":27.0471071132684,"what3words":"cheddar.doctored.cohesive","hf_type":"Sub Health Post","dist_name":"Udayapur","vdc_name1":"Laphagau","vdc_code1":"E-SAG-14-020","cartodb_id":57,"created_at":"2015-04-28T00:00:00.000Z","updated_at":"2015-04-28T00:00:00.000Z"}},
{"type":"Feature","geometry":{"type":"Point","coordinates":[86.6931271983573,26.9877791376215]},"properties":{"longitude":86.6931271983573,"latitude":26.9877791376215,"what3words":"unruly.inspiring.sapphires","hf_type":"Sub Health Post","dist_name":"Udayapur","vdc_name1":"Pokhari","vdc_code1":"E-SAG-14-028","cartodb_id":58,"created_at":"2015-04-28T00:00:00.000Z","updated_at":"2015-04-28T00:00:00.000Z"}},
{"type":"Feature","geometry":{"type":"Point","coordinates":[86.5894951553318,26.9523824120812]},"properties":{"longitude":86.5894951553318,"latitude":26.9523824120812,"what3words":"landfall.parties.subversive","hf_type":"Sub Health Post","dist_name":"Udayapur","vdc_name1":"Valayadanda","vdc_code1":"E-SAG-14-044","cartodb_id":59,"created_at":"2015-04-28T00:00:00.000Z","updated_at":"2015-04-28T00:00:00.000Z"}},
{"type":"Feature","geometry":{"type":"Point","coordinates":[86.7405188795233,26.9856785358006]},"properties":{"longitude":86.7405188795233,"latitude":26.9856785358006,"what3words":"recurrence.purer.guardhouse","hf_type":"Sub Health Post","dist_name":"Udayapur","vdc_name1":"Aaptar","vdc_code1":"E-SAG-14-001","cartodb_id":60,"created_at":"2015-04-28T00:00:00.000Z","updated_at":"2015-04-28T00:00:00.000Z"}},
{"type":"Feature","geometry":{"type":"Point","coordinates":[86.7430960825439,26.9300554404254]},"properties":{"longitude":86.7430960825439,"latitude":26.9300554404254,"what3words":"hamper.selectively.outfits","hf_type":"Sub Health Post","dist_name":"Udayapur","vdc_name1":"Khanbu","vdc_code1":"E-SAG-14-019","cartodb_id":61,"created_at":"2015-04-28T00:00:00.000Z","updated_at":"2015-04-28T00:00:00.000Z"}},
{"type":"Feature","geometry":{"type":"Point","coordinates":[86.678624597673,26.916016388363]},"properties":{"longitude":86.678624597673,"latitude":26.916016388363,"what3words":"toying.workmanlike.gains","hf_type":"Sub Health Post","dist_name":"Udayapur","vdc_name1":"Jalpachilaune","vdc_code1":"E-SAG-14-014","cartodb_id":62,"created_at":"2015-04-28T00:00:00.000Z","updated_at":"2015-04-28T00:00:00.000Z"}},
{"type":"Feature","geometry":{"type":"Point","coordinates":[86.7391527054836,26.8692962869724]},"properties":{"longitude":86.7391527054836,"latitude":26.8692962869724,"what3words":"beekeepers.retriever.domestics","hf_type":"Sub Health Post","dist_name":"Udayapur","vdc_name1":"Saune","vdc_code1":"E-SAG-14-032","cartodb_id":63,"created_at":"2015-04-28T00:00:00.000Z","updated_at":"2015-04-28T00:00:00.000Z"}},
{"type":"Feature","geometry":{"type":"Point","coordinates":[86.864830533291,26.878987768447]},"properties":{"longitude":86.864830533291,"latitude":26.878987768447,"what3words":"ultramodern.admirals.dribble","hf_type":"Sub Health Post","dist_name":"Udayapur","vdc_name1":"Sidhdipur","vdc_code1":"E-SAG-14-034","cartodb_id":64,"created_at":"2015-04-28T00:00:00.000Z","updated_at":"2015-04-28T00:00:00.000Z"}},
{"type":"Feature","geometry":{"type":"Point","coordinates":[86.820862225158,26.8101347344488]},"properties":{"longitude":86.820862225158,"latitude":26.8101347344488,"what3words":"magpies.apologetics.pedigreed","hf_type":"Sub Health Post","dist_name":"Udayapur","vdc_name1":"Hadiya","vdc_code1":"E-SAG-14-011","cartodb_id":65,"created_at":"2015-04-28T00:00:00.000Z","updated_at":"2015-04-28T00:00:00.000Z"}},
{"type":"Feature","geometry":{"type":"Point","coordinates":[86.7736365584156,26.7661492909459]},"properties":{"longitude":86.7736365584156,"latitude":26.7661492909459,"what3words":"fume.televised.nonsurgical","hf_type":"Sub Health Post","dist_name":"Udayapur","vdc_name1":"Jogidaha","vdc_code1":"E-SAG-14-016","cartodb_id":66,"created_at":"2015-04-28T00:00:00.000Z","updated_at":"2015-04-28T00:00:00.000Z"}},
{"type":"Feature","geometry":{"type":"Point","coordinates":[86.8886194777061,26.7582346342783]},"properties":{"longitude":86.8886194777061,"latitude":26.7582346342783,"what3words":"motioned.belonging.electorate","hf_type":"Sub Health Post","dist_name":"Udayapur","vdc_name1":"Sundarpur","vdc_code1":"E-SAG-14-036","cartodb_id":67,"created_at":"2015-04-28T00:00:00.000Z","updated_at":"2015-04-28T00:00:00.000Z"}},
{"type":"Feature","geometry":{"type":"Point","coordinates":[86.9370889659491,26.8210062774601]},"properties":{"longitude":86.9370889659491,"latitude":26.8210062774601,"what3words":"blandness.invariants.diploma","hf_type":"Sub Health Post","dist_name":"Udayapur","vdc_name1":"Bashaha","vdc_code1":"E-SAG-14-006","cartodb_id":68,"created_at":"2015-04-28T00:00:00.000Z","updated_at":"2015-04-28T00:00:00.000Z"}},
{"type":"Feature","geometry":{"type":"Point","coordinates":[86.9635923291922,26.8878312035703]},"properties":{"longitude":86.9635923291922,"latitude":26.8878312035703,"what3words":"prided.stopwatch.deposited","hf_type":"Sub Health Post","dist_name":"Udayapur","vdc_name1":"Chaudandi","vdc_code1":"E-SAG-14-009","cartodb_id":69,"created_at":"2015-04-28T00:00:00.000Z","updated_at":"2015-04-28T00:00:00.000Z"}},
{"type":"Feature","geometry":{"type":"Point","coordinates":[87.0656320202845,26.8914804314993]},"properties":{"longitude":87.0656320202845,"latitude":26.8914804314993,"what3words":"eggshell.incontinent.overlapping","hf_type":"Sub Health Post","dist_name":"Udayapur","vdc_name1":"Katunjebawala","vdc_code1":"E-SAG-14-018","cartodb_id":70,"created_at":"2015-04-28T00:00:00.000Z","updated_at":"2015-04-28T00:00:00.000Z"}},
{"type":"Feature","geometry":{"type":"Point","coordinates":[86.984014035016,26.7868242601045]},"properties":{"longitude":86.984014035016,"latitude":26.7868242601045,"what3words":"scrubs.copied.declared","hf_type":"Sub Health Post","dist_name":"Udayapur","vdc_name1":"Tapeswori","vdc_code1":"E-SAG-14-038","cartodb_id":71,"created_at":"2015-04-28T00:00:00.000Z","updated_at":"2015-04-28T00:00:00.000Z"}},
{"type":"Feature","geometry":{"type":"Point","coordinates":[87.001955598104,26.7209478068892]},"properties":{"longitude":87.001955598104,"latitude":26.7209478068892,"what3words":"prototyping.writings.snowiest","hf_type":"Sub Health Post","dist_name":"Udayapur","vdc_name1":"Koshi Tappu Wildlife","vdc_code1":"E-SAG-14-046","cartodb_id":72,"created_at":"2015-04-28T00:00:00.000Z","updated_at":"2015-04-28T00:00:00.000Z"}},
{"type":"Feature","geometry":{"type":"Point","coordinates":[87.1276925222734,26.9090048717487]},"properties":{"longitude":87.1276925222734,"latitude":26.9090048717487,"what3words":"inspect.rear.prosthetic","hf_type":"Sub Health Post","dist_name":"Udayapur","vdc_name1":"Mainamiani","vdc_code1":"E-SAG-14-024","cartodb_id":73,"created_at":"2015-04-28T00:00:00.000Z","updated_at":"2015-04-28T00:00:00.000Z"}},
{"type":"Feature","geometry":{"type":"Point","coordinates":[86.3854538605801,27.0850753481457]},"properties":{"longitude":86.3854538605801,"latitude":27.0850753481457,"what3words":"economies.grandest.salvaged","hf_type":"Sub Health Post","dist_name":"Udayapur","vdc_name1":"Hardeni","vdc_code1":"E-SAG-14-012","cartodb_id":74,"created_at":"2015-04-28T00:00:00.000Z","updated_at":"2015-04-28T00:00:00.000Z"}},
{"type":"Feature","geometry":{"type":"Point","coordinates":[86.6264278863461,26.8391029003397]},"properties":{"longitude":86.6264278863461,"latitude":26.8391029003397,"what3words":"rotary.berated.joked","hf_type":"District Cold Room","dist_name":"Udayapur","vdc_name1":"TriyugaN.P.","vdc_code1":"E-SAG-14-043","cartodb_id":75,"created_at":"2015-04-28T00:00:00.000Z","updated_at":"2015-04-28T00:00:00.000Z"}},
{"type":"Feature","geometry":{"type":"Point","coordinates":[86.3863082812488,26.9278356332672]},"properties":{"longitude":86.3863082812488,"latitude":26.9278356332672,"what3words":"persons.mainline.dentistry","hf_type":"Sub Center","dist_name":"Udayapur","vdc_name1":"Katari","vdc_code1":"E-SAG-14-017","cartodb_id":76,"created_at":"2015-04-28T00:00:00.000Z","updated_at":"2015-04-28T00:00:00.000Z"}},
{"type":"Feature","geometry":{"type":"Point","coordinates":[86.6660736912017,27.0054332748697]},"properties":{"longitude":86.6660736912017,"latitude":27.0054332748697,"what3words":"spaghetti.exert.bungalow","hf_type":"Supply Center","dist_name":"Udayapur","vdc_name1":"Bhuttar","vdc_code1":"E-SAG-14-008","cartodb_id":77,"created_at":"2015-04-28T00:00:00.000Z","updated_at":"2015-04-28T00:00:00.000Z"}},
{"type":"Feature","geometry":{"type":"Point","coordinates":[86.4021133536861,26.9655509990285]},"properties":{"longitude":86.4021133536861,"latitude":26.9655509990285,"what3words":"resorted.kickers.consented","hf_type":"Primary Health Center","dist_name":"Udayapur","vdc_name1":"Katari","vdc_code1":"E-SAG-14-017","cartodb_id":78,"created_at":"2015-04-28T00:00:00.000Z","updated_at":"2015-04-28T00:00:00.000Z"}},
{"type":"Feature","geometry":{"type":"Point","coordinates":[86.3281776385248,26.8998757054967]},"properties":{"longitude":86.3281776385248,"latitude":26.8998757054967,"what3words":"ensembles.excitingly.spud","hf_type":"Sub Health Post","dist_name":"Udayapur","vdc_name1":"Tribeni","vdc_code1":"E-SAG-14-042","cartodb_id":79,"created_at":"2015-04-28T00:00:00.000Z","updated_at":"2015-04-28T00:00:00.000Z"}},
{"type":"Feature","geometry":{"type":"Point","coordinates":[86.901503187402,26.8059337770572]},"properties":{"longitude":86.901503187402,"latitude":26.8059337770572,"what3words":"chords.washout.salaried","hf_type":"Sub Center","dist_name":"Udayapur","vdc_name1":"Beltar","vdc_code1":"E-SAG-14-007","cartodb_id":80,"created_at":"2015-04-28T00:00:00.000Z","updated_at":"2015-04-28T00:00:00.000Z"}},
{"type":"Feature","geometry":{"type":"Point","coordinates":[86.6570046019668,27.0782393947847]},"properties":{"longitude":86.6570046019668,"latitude":27.0782393947847,"what3words":"clockmaker.vague.stations","hf_type":"Sub Center","dist_name":"Udayapur","vdc_name1":"Balamta","vdc_code1":"E-SAG-14-002","cartodb_id":81,"created_at":"2015-04-28T00:00:00.000Z","updated_at":"2015-04-28T00:00:00.000Z"}},
{"type":"Feature","geometry":{"type":"Point","coordinates":[86.7019488604974,26.8094242761919]},"properties":{"longitude":86.7019488604974,"latitude":26.8094242761919,"what3words":"farces.descending.doubling","hf_type":"DPHO","dist_name":"Udayapur","vdc_name1":"TriyugaN.P.","vdc_code1":"E-SAG-14-043","cartodb_id":82,"created_at":"2015-04-28T00:00:00.000Z","updated_at":"2015-04-28T00:00:00.000Z"}},
{"type":"Feature","geometry":{"type":"Point","coordinates":[86.6531334993485,26.8132941402842]},"properties":{"longitude":86.6531334993485,"latitude":26.8132941402842,"what3words":"infinity.reclamation.detriment","hf_type":"Hospital","dist_name":"Udayapur","vdc_name1":"TriyugaN.P.","vdc_code1":"E-SAG-14-043","cartodb_id":83,"created_at":"2015-04-28T00:00:00.000Z","updated_at":"2015-04-28T00:00:00.000Z"}},
{"type":"Feature","geometry":{"type":"Point","coordinates":[86.8872584521162,26.8110603645525]},"properties":{"longitude":86.8872584521162,"latitude":26.8110603645525,"what3words":"intimidates.soundbites.angers","hf_type":"Primary Health Center","dist_name":"Udayapur","vdc_name1":"Beltar","vdc_code1":"E-SAG-14-007","cartodb_id":84,"created_at":"2015-04-28T00:00:00.000Z","updated_at":"2015-04-28T00:00:00.000Z"}},
{"type":"Feature","geometry":{"type":"Point","coordinates":[86.3475596210542,27.1320941928633]},"properties":{"longitude":86.3475596210542,"latitude":27.1320941928633,"what3words":"damply.fuzzy.gushes","hf_type":"Health Post","dist_name":"Udayapur","vdc_name1":"Yayankhu","vdc_code1":"E-SAG-14-045","cartodb_id":85,"created_at":"2015-04-28T00:00:00.000Z","updated_at":"2015-04-28T00:00:00.000Z"}},
{"type":"Feature","geometry":{"type":"Point","coordinates":[86.5613539582077,27.0924098666168]},"properties":{"longitude":86.5613539582077,"latitude":27.0924098666168,"what3words":"readable.employs.gums","hf_type":"Health Post","dist_name":"Udayapur","vdc_name1":"Rupatar","vdc_code1":"E-SAG-14-031","cartodb_id":86,"created_at":"2015-04-28T00:00:00.000Z","updated_at":"2015-04-28T00:00:00.000Z"}},
{"type":"Feature","geometry":{"type":"Point","coordinates":[86.5347872423339,27.0611590161548]},"properties":{"longitude":86.5347872423339,"latitude":27.0611590161548,"what3words":"tastiest.decorating.watchwords","hf_type":"Health Post","dist_name":"Udayapur","vdc_name1":"Lekhgau","vdc_code1":"E-SAG-14-022","cartodb_id":87,"created_at":"2015-04-28T00:00:00.000Z","updated_at":"2015-04-28T00:00:00.000Z"}},
{"type":"Feature","geometry":{"type":"Point","coordinates":[86.6832373413379,27.0885819551621]},"properties":{"longitude":86.6832373413379,"latitude":27.0885819551621,"what3words":"partridges.subordinates.laughed","hf_type":"Health Post","dist_name":"Udayapur","vdc_name1":"Balamta","vdc_code1":"E-SAG-14-002","cartodb_id":88,"created_at":"2015-04-28T00:00:00.000Z","updated_at":"2015-04-28T00:00:00.000Z"}},
{"type":"Feature","geometry":{"type":"Point","coordinates":[86.6741592902035,27.0168797544859]},"properties":{"longitude":86.6741592902035,"latitude":27.0168797544859,"what3words":"creeks.mushy.cuisine","hf_type":"Health Post","dist_name":"Udayapur","vdc_name1":"Bhuttar","vdc_code1":"E-SAG-14-008","cartodb_id":89,"created_at":"2015-04-28T00:00:00.000Z","updated_at":"2015-04-28T00:00:00.000Z"}},
{"type":"Feature","geometry":{"type":"Point","coordinates":[86.507383016698,26.9592579181148]},"properties":{"longitude":86.507383016698,"latitude":26.9592579181148,"what3words":"midbrain.diagnose.barons","hf_type":"Health Post","dist_name":"Udayapur","vdc_name1":"Pachchawati","vdc_code1":"E-SAG-14-027","cartodb_id":90,"created_at":"2015-04-28T00:00:00.000Z","updated_at":"2015-04-28T00:00:00.000Z"}},
{"type":"Feature","geometry":{"type":"Point","coordinates":[86.6667388655,26.7789579720498]},"properties":{"longitude":86.6667388655,"latitude":26.7789579720498,"what3words":"adjudicator.fertile.suntanned","hf_type":"Health Post","dist_name":"Udayapur","vdc_name1":"TriyugaN.P.","vdc_code1":"E-SAG-14-043","cartodb_id":91,"created_at":"2015-04-28T00:00:00.000Z","updated_at":"2015-04-28T00:00:00.000Z"}},
{"type":"Feature","geometry":{"type":"Point","coordinates":[86.6535068681703,26.9430706129462]},"properties":{"longitude":86.6535068681703,"latitude":26.9430706129462,"what3words":"beamy.lint.remarking","hf_type":"Health Post","dist_name":"Udayapur","vdc_name1":"Rauta","vdc_code1":"E-SAG-14-029","cartodb_id":92,"created_at":"2015-04-28T00:00:00.000Z","updated_at":"2015-04-28T00:00:00.000Z"}},
{"type":"Feature","geometry":{"type":"Point","coordinates":[87.0186229144862,26.8073992456399]},"properties":{"longitude":87.0186229144862,"latitude":26.8073992456399,"what3words":"spectating.rooting.campers","hf_type":"Health Post","dist_name":"Udayapur","vdc_name1":"Thoksila","vdc_code1":"E-SAG-14-041","cartodb_id":93,"created_at":"2015-04-28T00:00:00.000Z","updated_at":"2015-04-28T00:00:00.000Z"}},
{"type":"Feature","geometry":{"type":"Point","coordinates":[86.3971038633267,26.9856049092741]},"properties":{"longitude":86.3971038633267,"latitude":26.9856049092741,"what3words":"backhanded.unchained.certifies","hf_type":"Sub Health Post","dist_name":"Udayapur","vdc_name1":"Katari","vdc_code1":"E-SAG-14-017","cartodb_id":94,"created_at":"2015-04-28T00:00:00.000Z","updated_at":"2015-04-28T00:00:00.000Z"}},
{"type":"Feature","geometry":{"type":"Point","coordinates":[86.4438280069778,26.9718639362014]},"properties":{"longitude":86.4438280069778,"latitude":26.9718639362014,"what3words":"squashes.eyepiece.malt","hf_type":"Sub Health Post","dist_name":"Udayapur","vdc_name1":"Risku","vdc_code1":"E-SAG-14-030","cartodb_id":95,"created_at":"2015-04-28T00:00:00.000Z","updated_at":"2015-04-28T00:00:00.000Z"}},
{"type":"Feature","geometry":{"type":"Point","coordinates":[86.4813460653951,27.0257489572418]},"properties":{"longitude":86.4813460653951,"latitude":27.0257489572418,"what3words":"aforesaid.magpie.outlandish","hf_type":"Sub Health Post","dist_name":"Udayapur","vdc_name1":"Tawashree","vdc_code1":"E-SAG-14-039","cartodb_id":96,"created_at":"2015-04-28T00:00:00.000Z","updated_at":"2015-04-28T00:00:00.000Z"}},
{"type":"Feature","geometry":{"type":"Point","coordinates":[86.4922167387753,27.0795302387643]},"properties":{"longitude":86.4922167387753,"latitude":27.0795302387643,"what3words":"scarring.unreserved.embarrasses","hf_type":"Sub Health Post","dist_name":"Udayapur","vdc_name1":"Okhale","vdc_code1":"E-SAG-14-026","cartodb_id":97,"created_at":"2015-04-28T00:00:00.000Z","updated_at":"2015-04-28T00:00:00.000Z"}},
{"type":"Feature","geometry":{"type":"Point","coordinates":[86.4678326991655,27.0635166886738]},"properties":{"longitude":86.4678326991655,"latitude":27.0635166886738,"what3words":"retrieval.depleted.angled","hf_type":"Sub Health Post","dist_name":"Udayapur","vdc_name1":"Limpatar","vdc_code1":"E-SAG-14-023","cartodb_id":98,"created_at":"2015-04-28T00:00:00.000Z","updated_at":"2015-04-28T00:00:00.000Z"}},
{"type":"Feature","geometry":{"type":"Point","coordinates":[86.4323009544985,27.0554161001776]},"properties":{"longitude":86.4323009544985,"latitude":27.0554161001776,"what3words":"spendthrift.brawn.paddle","hf_type":"Sub Health Post","dist_name":"Udayapur","vdc_name1":"Sirise","vdc_code1":"E-SAG-14-035","cartodb_id":99,"created_at":"2015-04-28T00:00:00.000Z","updated_at":"2015-04-28T00:00:00.000Z"}},
{"type":"Feature","geometry":{"type":"Point","coordinates":[86.4320099661044,27.1131368521594]},"properties":{"longitude":86.4320099661044,"latitude":27.1131368521594,"what3words":"pretends.groove.recliners","hf_type":"Sub Health Post","dist_name":"Udayapur","vdc_name1":"ShorungChabise","vdc_code1":"E-SAG-14-033","cartodb_id":100,"created_at":"2015-04-28T00:00:00.000Z","updated_at":"2015-04-28T00:00:00.000Z"}},
{"type":"Feature","geometry":{"type":"Point","coordinates":[86.4006801024917,27.148833740486]},"properties":{"longitude":86.4006801024917,"latitude":27.148833740486,"what3words":"mushy.clutter.migrated","hf_type":"Sub Health Post","dist_name":"Udayapur","vdc_name1":"Lekhani","vdc_code1":"E-SAG-14-021","cartodb_id":101,"created_at":"2015-04-28T00:00:00.000Z","updated_at":"2015-04-28T00:00:00.000Z"}},
{"type":"Feature","geometry":{"type":"Point","coordinates":[86.563483023581,27.1316266780692]},"properties":{"longitude":86.563483023581,"latitude":27.1316266780692,"what3words":"dupe.puncher.upgraded","hf_type":"Sub Health Post","dist_name":"Udayapur","vdc_name1":"Thanagau","vdc_code1":"E-SAG-14-040","cartodb_id":102,"created_at":"2015-04-28T00:00:00.000Z","updated_at":"2015-04-28T00:00:00.000Z"}},
{"type":"Feature","geometry":{"type":"Point","coordinates":[86.5855458491816,27.1382808054746]},"properties":{"longitude":86.5855458491816,"latitude":27.1382808054746,"what3words":"limped.recollects.visibility","hf_type":"Sub Health Post","dist_name":"Udayapur","vdc_name1":"Basabote","vdc_code1":"E-SAG-14-005","cartodb_id":103,"created_at":"2015-04-28T00:00:00.000Z","updated_at":"2015-04-28T00:00:00.000Z"}},
{"type":"Feature","geometry":{"type":"Point","coordinates":[86.6379580701251,27.1215915166538]},"properties":{"longitude":86.6379580701251,"latitude":27.1215915166538,"what3words":"classification.paddled.additives","hf_type":"Sub Health Post","dist_name":"Udayapur","vdc_name1":"Tamlida","vdc_code1":"E-SAG-14-037","cartodb_id":104,"created_at":"2015-04-28T00:00:00.000Z","updated_at":"2015-04-28T00:00:00.000Z"}},
{"type":"Feature","geometry":{"type":"Point","coordinates":[86.5971014169547,27.1097695081969]},"properties":{"longitude":86.5971014169547,"latitude":27.1097695081969,"what3words":"ultra.exclaim.garnishes","hf_type":"Sub Health Post","dist_name":"Udayapur","vdc_name1":"Baraha","vdc_code1":"E-SAG-14-003","cartodb_id":105,"created_at":"2015-04-28T00:00:00.000Z","updated_at":"2015-04-28T00:00:00.000Z"}},
{"type":"Feature","geometry":{"type":"Point","coordinates":[86.5801032635744,27.0621446500329]},"properties":{"longitude":86.5801032635744,"latitude":27.0621446500329,"what3words":"bandages.tutored.helpfulness","hf_type":"Sub Health Post","dist_name":"Udayapur","vdc_name1":"Iname","vdc_code1":"E-SAG-14-013","cartodb_id":106,"created_at":"2015-04-28T00:00:00.000Z","updated_at":"2015-04-28T00:00:00.000Z"}},
{"type":"Feature","geometry":{"type":"Point","coordinates":[86.5598447428266,27.0159712481279]},"properties":{"longitude":86.5598447428266,"latitude":27.0159712481279,"what3words":"taxied.paper.arranges","hf_type":"Sub Health Post","dist_name":"Udayapur","vdc_name1":"Barai","vdc_code1":"E-SAG-14-004","cartodb_id":107,"created_at":"2015-04-28T00:00:00.000Z","updated_at":"2015-04-28T00:00:00.000Z"}},
{"type":"Feature","geometry":{"type":"Point","coordinates":[86.6227107937292,27.033720089046]},"properties":{"longitude":86.6227107937292,"latitude":27.033720089046,"what3words":"reconnects.daytime.ladybug","hf_type":"Sub Health Post","dist_name":"Udayapur","vdc_name1":"Nametar","vdc_code1":"E-SAG-14-025","cartodb_id":108,"created_at":"2015-04-28T00:00:00.000Z","updated_at":"2015-04-28T00:00:00.000Z"}},
{"type":"Feature","geometry":{"type":"Point","coordinates":[86.5730719858558,26.9757556339354]},"properties":{"longitude":86.5730719858558,"latitude":26.9757556339354,"what3words":"selected.excitedly.abroad","hf_type":"Sub Health Post","dist_name":"Udayapur","vdc_name1":"Dumre","vdc_code1":"E-SAG-14-010","cartodb_id":109,"created_at":"2015-04-28T00:00:00.000Z","updated_at":"2015-04-28T00:00:00.000Z"}},
{"type":"Feature","geometry":{"type":"Point","coordinates":[86.6896520472707,27.063160929662]},"properties":{"longitude":86.6896520472707,"latitude":27.063160929662,"what3words":"ambulances.purposeful.hobbyists","hf_type":"Sub Health Post","dist_name":"Udayapur","vdc_name1":"Jante","vdc_code1":"E-SAG-14-015","cartodb_id":110,"created_at":"2015-04-28T00:00:00.000Z","updated_at":"2015-04-28T00:00:00.000Z"}},
{"type":"Feature","geometry":{"type":"Point","coordinates":[86.712584635658,27.0471071132684]},"properties":{"longitude":86.712584635658,"latitude":27.0471071132684,"what3words":"cheddar.doctored.cohesive","hf_type":"Sub Health Post","dist_name":"Udayapur","vdc_name1":"Laphagau","vdc_code1":"E-SAG-14-020","cartodb_id":111,"created_at":"2015-04-28T00:00:00.000Z","updated_at":"2015-04-28T00:00:00.000Z"}},
{"type":"Feature","geometry":{"type":"Point","coordinates":[86.6931271983573,26.9877791376215]},"properties":{"longitude":86.6931271983573,"latitude":26.9877791376215,"what3words":"unruly.inspiring.sapphires","hf_type":"Sub Health Post","dist_name":"Udayapur","vdc_name1":"Pokhari","vdc_code1":"E-SAG-14-028","cartodb_id":112,"created_at":"2015-04-28T00:00:00.000Z","updated_at":"2015-04-28T00:00:00.000Z"}},
{"type":"Feature","geometry":{"type":"Point","coordinates":[86.5894951553318,26.9523824120812]},"properties":{"longitude":86.5894951553318,"latitude":26.9523824120812,"what3words":"landfall.parties.subversive","hf_type":"Sub Health Post","dist_name":"Udayapur","vdc_name1":"Valayadanda","vdc_code1":"E-SAG-14-044","cartodb_id":113,"created_at":"2015-04-28T00:00:00.000Z","updated_at":"2015-04-28T00:00:00.000Z"}},
{"type":"Feature","geometry":{"type":"Point","coordinates":[86.7405188795233,26.9856785358006]},"properties":{"longitude":86.7405188795233,"latitude":26.9856785358006,"what3words":"recurrence.purer.guardhouse","hf_type":"Sub Health Post","dist_name":"Udayapur","vdc_name1":"Aaptar","vdc_code1":"E-SAG-14-001","cartodb_id":114,"created_at":"2015-04-28T00:00:00.000Z","updated_at":"2015-04-28T00:00:00.000Z"}},
{"type":"Feature","geometry":{"type":"Point","coordinates":[86.7430960825439,26.9300554404254]},"properties":{"longitude":86.7430960825439,"latitude":26.9300554404254,"what3words":"hamper.selectively.outfits","hf_type":"Sub Health Post","dist_name":"Udayapur","vdc_name1":"Khanbu","vdc_code1":"E-SAG-14-019","cartodb_id":115,"created_at":"2015-04-28T00:00:00.000Z","updated_at":"2015-04-28T00:00:00.000Z"}},
{"type":"Feature","geometry":{"type":"Point","coordinates":[86.678624597673,26.916016388363]},"properties":{"longitude":86.678624597673,"latitude":26.916016388363,"what3words":"toying.workmanlike.gains","hf_type":"Sub Health Post","dist_name":"Udayapur","vdc_name1":"Jalpachilaune","vdc_code1":"E-SAG-14-014","cartodb_id":116,"created_at":"2015-04-28T00:00:00.000Z","updated_at":"2015-04-28T00:00:00.000Z"}},
{"type":"Feature","geometry":{"type":"Point","coordinates":[86.7391527054836,26.8692962869724]},"properties":{"longitude":86.7391527054836,"latitude":26.8692962869724,"what3words":"beekeepers.retriever.domestics","hf_type":"Sub Health Post","dist_name":"Udayapur","vdc_name1":"Saune","vdc_code1":"E-SAG-14-032","cartodb_id":117,"created_at":"2015-04-28T00:00:00.000Z","updated_at":"2015-04-28T00:00:00.000Z"}},
{"type":"Feature","geometry":{"type":"Point","coordinates":[86.864830533291,26.878987768447]},"properties":{"longitude":86.864830533291,"latitude":26.878987768447,"what3words":"ultramodern.admirals.dribble","hf_type":"Sub Health Post","dist_name":"Udayapur","vdc_name1":"Sidhdipur","vdc_code1":"E-SAG-14-034","cartodb_id":118,"created_at":"2015-04-28T00:00:00.000Z","updated_at":"2015-04-28T00:00:00.000Z"}},
{"type":"Feature","geometry":{"type":"Point","coordinates":[86.820862225158,26.8101347344488]},"properties":{"longitude":86.820862225158,"latitude":26.8101347344488,"what3words":"magpies.apologetics.pedigreed","hf_type":"Sub Health Post","dist_name":"Udayapur","vdc_name1":"Hadiya","vdc_code1":"E-SAG-14-011","cartodb_id":119,"created_at":"2015-04-28T00:00:00.000Z","updated_at":"2015-04-28T00:00:00.000Z"}},
{"type":"Feature","geometry":{"type":"Point","coordinates":[86.7736365584156,26.7661492909459]},"properties":{"longitude":86.7736365584156,"latitude":26.7661492909459,"what3words":"fume.televised.nonsurgical","hf_type":"Sub Health Post","dist_name":"Udayapur","vdc_name1":"Jogidaha","vdc_code1":"E-SAG-14-016","cartodb_id":120,"created_at":"2015-04-28T00:00:00.000Z","updated_at":"2015-04-28T00:00:00.000Z"}},
{"type":"Feature","geometry":{"type":"Point","coordinates":[86.8886194777061,26.7582346342783]},"properties":{"longitude":86.8886194777061,"latitude":26.7582346342783,"what3words":"motioned.belonging.electorate","hf_type":"Sub Health Post","dist_name":"Udayapur","vdc_name1":"Sundarpur","vdc_code1":"E-SAG-14-036","cartodb_id":121,"created_at":"2015-04-28T00:00:00.000Z","updated_at":"2015-04-28T00:00:00.000Z"}},
{"type":"Feature","geometry":{"type":"Point","coordinates":[86.9370889659491,26.8210062774601]},"properties":{"longitude":86.9370889659491,"latitude":26.8210062774601,"what3words":"blandness.invariants.diploma","hf_type":"Sub Health Post","dist_name":"Udayapur","vdc_name1":"Bashaha","vdc_code1":"E-SAG-14-006","cartodb_id":122,"created_at":"2015-04-28T00:00:00.000Z","updated_at":"2015-04-28T00:00:00.000Z"}},
{"type":"Feature","geometry":{"type":"Point","coordinates":[86.9635923291922,26.8878312035703]},"properties":{"longitude":86.9635923291922,"latitude":26.8878312035703,"what3words":"prided.stopwatch.deposited","hf_type":"Sub Health Post","dist_name":"Udayapur","vdc_name1":"Chaudandi","vdc_code1":"E-SAG-14-009","cartodb_id":123,"created_at":"2015-04-28T00:00:00.000Z","updated_at":"2015-04-28T00:00:00.000Z"}},
{"type":"Feature","geometry":{"type":"Point","coordinates":[87.0656320202845,26.8914804314993]},"properties":{"longitude":87.0656320202845,"latitude":26.8914804314993,"what3words":"eggshell.incontinent.overlapping","hf_type":"Sub Health Post","dist_name":"Udayapur","vdc_name1":"Katunjebawala","vdc_code1":"E-SAG-14-018","cartodb_id":124,"created_at":"2015-04-28T00:00:00.000Z","updated_at":"2015-04-28T00:00:00.000Z"}},
{"type":"Feature","geometry":{"type":"Point","coordinates":[86.984014035016,26.7868242601045]},"properties":{"longitude":86.984014035016,"latitude":26.7868242601045,"what3words":"scrubs.copied.declared","hf_type":"Sub Health Post","dist_name":"Udayapur","vdc_name1":"Tapeswori","vdc_code1":"E-SAG-14-038","cartodb_id":125,"created_at":"2015-04-28T00:00:00.000Z","updated_at":"2015-04-28T00:00:00.000Z"}},
{"type":"Feature","geometry":{"type":"Point","coordinates":[87.001955598104,26.7209478068892]},"properties":{"longitude":87.001955598104,"latitude":26.7209478068892,"what3words":"prototyping.writings.snowiest","hf_type":"Sub Health Post","dist_name":"Udayapur","vdc_name1":"Koshi Tappu Wildlife","vdc_code1":"E-SAG-14-046","cartodb_id":126,"created_at":"2015-04-28T00:00:00.000Z","updated_at":"2015-04-28T00:00:00.000Z"}},
{"type":"Feature","geometry":{"type":"Point","coordinates":[87.1276925222734,26.9090048717487]},"properties":{"longitude":87.1276925222734,"latitude":26.9090048717487,"what3words":"inspect.rear.prosthetic","hf_type":"Sub Health Post","dist_name":"Udayapur","vdc_name1":"Mainamiani","vdc_code1":"E-SAG-14-024","cartodb_id":127,"created_at":"2015-04-28T00:00:00.000Z","updated_at":"2015-04-28T00:00:00.000Z"}},
{"type":"Feature","geometry":{"type":"Point","coordinates":[86.3854538605801,27.0850753481457]},"properties":{"longitude":86.3854538605801,"latitude":27.0850753481457,"what3words":"economies.grandest.salvaged","hf_type":"Sub Health Post","dist_name":"Udayapur","vdc_name1":"Hardeni","vdc_code1":"E-SAG-14-012","cartodb_id":128,"created_at":"2015-04-28T00:00:00.000Z","updated_at":"2015-04-28T00:00:00.000Z"}},
{"type":"Feature","geometry":{"type":"Point","coordinates":[86.6264278863461,26.8391029003397]},"properties":{"longitude":86.6264278863461,"latitude":26.8391029003397,"what3words":"rotary.berated.joked","hf_type":"District Cold Room","dist_name":"Udayapur","vdc_name1":"TriyugaN.P.","vdc_code1":"E-SAG-14-043","cartodb_id":129,"created_at":"2015-04-28T00:00:00.000Z","updated_at":"2015-04-28T00:00:00.000Z"}},
{"type":"Feature","geometry":{"type":"Point","coordinates":[86.3863082812488,26.9278356332672]},"properties":{"longitude":86.3863082812488,"latitude":26.9278356332672,"what3words":"persons.mainline.dentistry","hf_type":"Sub Center","dist_name":"Udayapur","vdc_name1":"Katari","vdc_code1":"E-SAG-14-017","cartodb_id":130,"created_at":"2015-04-28T00:00:00.000Z","updated_at":"2015-04-28T00:00:00.000Z"}},
{"type":"Feature","geometry":{"type":"Point","coordinates":[86.6660736912017,27.0054332748697]},"properties":{"longitude":86.6660736912017,"latitude":27.0054332748697,"what3words":"spaghetti.exert.bungalow","hf_type":"Supply Center","dist_name":"Udayapur","vdc_name1":"Bhuttar","vdc_code1":"E-SAG-14-008","cartodb_id":131,"created_at":"2015-04-28T00:00:00.000Z","updated_at":"2015-04-28T00:00:00.000Z"}},
{"type":"Feature","geometry":{"type":"Point","coordinates":[86.4021133536861,26.9655509990285]},"properties":{"longitude":86.4021133536861,"latitude":26.9655509990285,"what3words":"resorted.kickers.consented","hf_type":"Primary Health Center","dist_name":"Udayapur","vdc_name1":"Katari","vdc_code1":"E-SAG-14-017","cartodb_id":132,"created_at":"2015-04-28T00:00:00.000Z","updated_at":"2015-04-28T00:00:00.000Z"}},
{"type":"Feature","geometry":{"type":"Point","coordinates":[86.3281776385248,26.8998757054967]},"properties":{"longitude":86.3281776385248,"latitude":26.8998757054967,"what3words":"ensembles.excitingly.spud","hf_type":"Sub Health Post","dist_name":"Udayapur","vdc_name1":"Tribeni","vdc_code1":"E-SAG-14-042","cartodb_id":133,"created_at":"2015-04-28T00:00:00.000Z","updated_at":"2015-04-28T00:00:00.000Z"}},
{"type":"Feature","geometry":{"type":"Point","coordinates":[86.901503187402,26.8059337770572]},"properties":{"longitude":86.901503187402,"latitude":26.8059337770572,"what3words":"chords.washout.salaried","hf_type":"Sub Center","dist_name":"Udayapur","vdc_name1":"Beltar","vdc_code1":"E-SAG-14-007","cartodb_id":134,"created_at":"2015-04-28T00:00:00.000Z","updated_at":"2015-04-28T00:00:00.000Z"}},
{"type":"Feature","geometry":{"type":"Point","coordinates":[86.6570046019668,27.0782393947847]},"properties":{"longitude":86.6570046019668,"latitude":27.0782393947847,"what3words":"clockmaker.vague.stations","hf_type":"Sub Center","dist_name":"Udayapur","vdc_name1":"Balamta","vdc_code1":"E-SAG-14-002","cartodb_id":135,"created_at":"2015-04-28T00:00:00.000Z","updated_at":"2015-04-28T00:00:00.000Z"}},
{"type":"Feature","geometry":{"type":"Point","coordinates":[86.6531334993485,26.8132941402842]},"properties":{"longitude":86.6531334993485,"latitude":26.8132941402842,"what3words":"infinity.reclamation.detriment","hf_type":"Hospital","dist_name":"Udayapur","vdc_name1":"TriyugaN.P.","vdc_code1":"E-SAG-14-043","cartodb_id":136,"created_at":"2015-04-28T00:00:00.000Z","updated_at":"2015-04-28T00:00:00.000Z"}},
{"type":"Feature","geometry":{"type":"Point","coordinates":[86.8872584521162,26.8110603645525]},"properties":{"longitude":86.8872584521162,"latitude":26.8110603645525,"what3words":"intimidates.soundbites.angers","hf_type":"Primary Health Center","dist_name":"Udayapur","vdc_name1":"Beltar","vdc_code1":"E-SAG-14-007","cartodb_id":137,"created_at":"2015-04-28T00:00:00.000Z","updated_at":"2015-04-28T00:00:00.000Z"}},
{"type":"Feature","geometry":{"type":"Point","coordinates":[86.3475596210542,27.1320941928633]},"properties":{"longitude":86.3475596210542,"latitude":27.1320941928633,"what3words":"damply.fuzzy.gushes","hf_type":"Health Post","dist_name":"Udayapur","vdc_name1":"Yayankhu","vdc_code1":"E-SAG-14-045","cartodb_id":138,"created_at":"2015-04-28T00:00:00.000Z","updated_at":"2015-04-28T00:00:00.000Z"}},
{"type":"Feature","geometry":{"type":"Point","coordinates":[86.5613539582077,27.0924098666168]},"properties":{"longitude":86.5613539582077,"latitude":27.0924098666168,"what3words":"readable.employs.gums","hf_type":"Health Post","dist_name":"Udayapur","vdc_name1":"Rupatar","vdc_code1":"E-SAG-14-031","cartodb_id":139,"created_at":"2015-04-28T00:00:00.000Z","updated_at":"2015-04-28T00:00:00.000Z"}},
{"type":"Feature","geometry":{"type":"Point","coordinates":[86.5347872423339,27.0611590161548]},"properties":{"longitude":86.5347872423339,"latitude":27.0611590161548,"what3words":"tastiest.decorating.watchwords","hf_type":"Health Post","dist_name":"Udayapur","vdc_name1":"Lekhgau","vdc_code1":"E-SAG-14-022","cartodb_id":140,"created_at":"2015-04-28T00:00:00.000Z","updated_at":"2015-04-28T00:00:00.000Z"}},
{"type":"Feature","geometry":{"type":"Point","coordinates":[86.6832373413379,27.0885819551621]},"properties":{"longitude":86.6832373413379,"latitude":27.0885819551621,"what3words":"partridges.subordinates.laughed","hf_type":"Health Post","dist_name":"Udayapur","vdc_name1":"Balamta","vdc_code1":"E-SAG-14-002","cartodb_id":141,"created_at":"2015-04-28T00:00:00.000Z","updated_at":"2015-04-28T00:00:00.000Z"}},
{"type":"Feature","geometry":{"type":"Point","coordinates":[86.6741592902035,27.0168797544859]},"properties":{"longitude":86.6741592902035,"latitude":27.0168797544859,"what3words":"creeks.mushy.cuisine","hf_type":"Health Post","dist_name":"Udayapur","vdc_name1":"Bhuttar","vdc_code1":"E-SAG-14-008","cartodb_id":142,"created_at":"2015-04-28T00:00:00.000Z","updated_at":"2015-04-28T00:00:00.000Z"}},
{"type":"Feature","geometry":{"type":"Point","coordinates":[86.507383016698,26.9592579181148]},"properties":{"longitude":86.507383016698,"latitude":26.9592579181148,"what3words":"midbrain.diagnose.barons","hf_type":"Health Post","dist_name":"Udayapur","vdc_name1":"Pachchawati","vdc_code1":"E-SAG-14-027","cartodb_id":143,"created_at":"2015-04-28T00:00:00.000Z","updated_at":"2015-04-28T00:00:00.000Z"}},
{"type":"Feature","geometry":{"type":"Point","coordinates":[86.6667388655,26.7789579720498]},"properties":{"longitude":86.6667388655,"latitude":26.7789579720498,"what3words":"adjudicator.fertile.suntanned","hf_type":"Health Post","dist_name":"Udayapur","vdc_name1":"TriyugaN.P.","vdc_code1":"E-SAG-14-043","cartodb_id":144,"created_at":"2015-04-28T00:00:00.000Z","updated_at":"2015-04-28T00:00:00.000Z"}},
{"type":"Feature","geometry":{"type":"Point","coordinates":[86.6535068681703,26.9430706129462]},"properties":{"longitude":86.6535068681703,"latitude":26.9430706129462,"what3words":"beamy.lint.remarking","hf_type":"Health Post","dist_name":"Udayapur","vdc_name1":"Rauta","vdc_code1":"E-SAG-14-029","cartodb_id":145,"created_at":"2015-04-28T00:00:00.000Z","updated_at":"2015-04-28T00:00:00.000Z"}},
{"type":"Feature","geometry":{"type":"Point","coordinates":[87.0186229144862,26.8073992456399]},"properties":{"longitude":87.0186229144862,"latitude":26.8073992456399,"what3words":"spectating.rooting.campers","hf_type":"Health Post","dist_name":"Udayapur","vdc_name1":"Thoksila","vdc_code1":"E-SAG-14-041","cartodb_id":146,"created_at":"2015-04-28T00:00:00.000Z","updated_at":"2015-04-28T00:00:00.000Z"}},
{"type":"Feature","geometry":{"type":"Point","coordinates":[86.3971038633267,26.9856049092741]},"properties":{"longitude":86.3971038633267,"latitude":26.9856049092741,"what3words":"backhanded.unchained.certifies","hf_type":"Sub Health Post","dist_name":"Udayapur","vdc_name1":"Katari","vdc_code1":"E-SAG-14-017","cartodb_id":147,"created_at":"2015-04-28T00:00:00.000Z","updated_at":"2015-04-28T00:00:00.000Z"}},
{"type":"Feature","geometry":{"type":"Point","coordinates":[86.4438280069778,26.9718639362014]},"properties":{"longitude":86.4438280069778,"latitude":26.9718639362014,"what3words":"squashes.eyepiece.malt","hf_type":"Sub Health Post","dist_name":"Udayapur","vdc_name1":"Risku","vdc_code1":"E-SAG-14-030","cartodb_id":148,"created_at":"2015-04-28T00:00:00.000Z","updated_at":"2015-04-28T00:00:00.000Z"}},
{"type":"Feature","geometry":{"type":"Point","coordinates":[86.4813460653951,27.0257489572418]},"properties":{"longitude":86.4813460653951,"latitude":27.0257489572418,"what3words":"aforesaid.magpie.outlandish","hf_type":"Sub Health Post","dist_name":"Udayapur","vdc_name1":"Tawashree","vdc_code1":"E-SAG-14-039","cartodb_id":149,"created_at":"2015-04-28T00:00:00.000Z","updated_at":"2015-04-28T00:00:00.000Z"}},
{"type":"Feature","geometry":{"type":"Point","coordinates":[86.4922167387753,27.0795302387643]},"properties":{"longitude":86.4922167387753,"latitude":27.0795302387643,"what3words":"scarring.unreserved.embarrasses","hf_type":"Sub Health Post","dist_name":"Udayapur","vdc_name1":"Okhale","vdc_code1":"E-SAG-14-026","cartodb_id":150,"created_at":"2015-04-28T00:00:00.000Z","updated_at":"2015-04-28T00:00:00.000Z"}},
{"type":"Feature","geometry":{"type":"Point","coordinates":[86.4678326991655,27.0635166886738]},"properties":{"longitude":86.4678326991655,"latitude":27.0635166886738,"what3words":"retrieval.depleted.angled","hf_type":"Sub Health Post","dist_name":"Udayapur","vdc_name1":"Limpatar","vdc_code1":"E-SAG-14-023","cartodb_id":151,"created_at":"2015-04-28T00:00:00.000Z","updated_at":"2015-04-28T00:00:00.000Z"}},
{"type":"Feature","geometry":{"type":"Point","coordinates":[86.4323009544985,27.0554161001776]},"properties":{"longitude":86.4323009544985,"latitude":27.0554161001776,"what3words":"spendthrift.brawn.paddle","hf_type":"Sub Health Post","dist_name":"Udayapur","vdc_name1":"Sirise","vdc_code1":"E-SAG-14-035","cartodb_id":152,"created_at":"2015-04-28T00:00:00.000Z","updated_at":"2015-04-28T00:00:00.000Z"}},
{"type":"Feature","geometry":{"type":"Point","coordinates":[86.4320099661044,27.1131368521594]},"properties":{"longitude":86.4320099661044,"latitude":27.1131368521594,"what3words":"pretends.groove.recliners","hf_type":"Sub Health Post","dist_name":"Udayapur","vdc_name1":"ShorungChabise","vdc_code1":"E-SAG-14-033","cartodb_id":153,"created_at":"2015-04-28T00:00:00.000Z","updated_at":"2015-04-28T00:00:00.000Z"}},
{"type":"Feature","geometry":{"type":"Point","coordinates":[86.4006801024917,27.148833740486]},"properties":{"longitude":86.4006801024917,"latitude":27.148833740486,"what3words":"mushy.clutter.migrated","hf_type":"Sub Health Post","dist_name":"Udayapur","vdc_name1":"Lekhani","vdc_code1":"E-SAG-14-021","cartodb_id":154,"created_at":"2015-04-28T00:00:00.000Z","updated_at":"2015-04-28T00:00:00.000Z"}},
{"type":"Feature","geometry":{"type":"Point","coordinates":[86.563483023581,27.1316266780692]},"properties":{"longitude":86.563483023581,"latitude":27.1316266780692,"what3words":"dupe.puncher.upgraded","hf_type":"Sub Health Post","dist_name":"Udayapur","vdc_name1":"Thanagau","vdc_code1":"E-SAG-14-040","cartodb_id":155,"created_at":"2015-04-28T00:00:00.000Z","updated_at":"2015-04-28T00:00:00.000Z"}},
{"type":"Feature","geometry":{"type":"Point","coordinates":[86.5855458491816,27.1382808054746]},"properties":{"longitude":86.5855458491816,"latitude":27.1382808054746,"what3words":"limped.recollects.visibility","hf_type":"Sub Health Post","dist_name":"Udayapur","vdc_name1":"Basabote","vdc_code1":"E-SAG-14-005","cartodb_id":156,"created_at":"2015-04-28T00:00:00.000Z","updated_at":"2015-04-28T00:00:00.000Z"}},
{"type":"Feature","geometry":{"type":"Point","coordinates":[86.6379580701251,27.1215915166538]},"properties":{"longitude":86.6379580701251,"latitude":27.1215915166538,"what3words":"classification.paddled.additives","hf_type":"Sub Health Post","dist_name":"Udayapur","vdc_name1":"Tamlida","vdc_code1":"E-SAG-14-037","cartodb_id":157,"created_at":"2015-04-28T00:00:00.000Z","updated_at":"2015-04-28T00:00:00.000Z"}},
{"type":"Feature","geometry":{"type":"Point","coordinates":[86.5971014169547,27.1097695081969]},"properties":{"longitude":86.5971014169547,"latitude":27.1097695081969,"what3words":"ultra.exclaim.garnishes","hf_type":"Sub Health Post","dist_name":"Udayapur","vdc_name1":"Baraha","vdc_code1":"E-SAG-14-003","cartodb_id":158,"created_at":"2015-04-28T00:00:00.000Z","updated_at":"2015-04-28T00:00:00.000Z"}},
{"type":"Feature","geometry":{"type":"Point","coordinates":[86.5801032635744,27.0621446500329]},"properties":{"longitude":86.5801032635744,"latitude":27.0621446500329,"what3words":"bandages.tutored.helpfulness","hf_type":"Sub Health Post","dist_name":"Udayapur","vdc_name1":"Iname","vdc_code1":"E-SAG-14-013","cartodb_id":159,"created_at":"2015-04-28T00:00:00.000Z","updated_at":"2015-04-28T00:00:00.000Z"}},
{"type":"Feature","geometry":{"type":"Point","coordinates":[86.5598447428266,27.0159712481279]},"properties":{"longitude":86.5598447428266,"latitude":27.0159712481279,"what3words":"taxied.paper.arranges","hf_type":"Sub Health Post","dist_name":"Udayapur","vdc_name1":"Barai","vdc_code1":"E-SAG-14-004","cartodb_id":160,"created_at":"2015-04-28T00:00:00.000Z","updated_at":"2015-04-28T00:00:00.000Z"}},
{"type":"Feature","geometry":{"type":"Point","coordinates":[86.6227107937292,27.033720089046]},"properties":{"longitude":86.6227107937292,"latitude":27.033720089046,"what3words":"reconnects.daytime.ladybug","hf_type":"Sub Health Post","dist_name":"Udayapur","vdc_name1":"Nametar","vdc_code1":"E-SAG-14-025","cartodb_id":161,"created_at":"2015-04-28T00:00:00.000Z","updated_at":"2015-04-28T00:00:00.000Z"}},
{"type":"Feature","geometry":{"type":"Point","coordinates":[86.5730719858558,26.9757556339354]},"properties":{"longitude":86.5730719858558,"latitude":26.9757556339354,"what3words":"selected.excitedly.abroad","hf_type":"Sub Health Post","dist_name":"Udayapur","vdc_name1":"Dumre","vdc_code1":"E-SAG-14-010","cartodb_id":162,"created_at":"2015-04-28T00:00:00.000Z","updated_at":"2015-04-28T00:00:00.000Z"}},
{"type":"Feature","geometry":{"type":"Point","coordinates":[86.6896520472707,27.063160929662]},"properties":{"longitude":86.6896520472707,"latitude":27.063160929662,"what3words":"ambulances.purposeful.hobbyists","hf_type":"Sub Health Post","dist_name":"Udayapur","vdc_name1":"Jante","vdc_code1":"E-SAG-14-015","cartodb_id":163,"created_at":"2015-04-28T00:00:00.000Z","updated_at":"2015-04-28T00:00:00.000Z"}},
{"type":"Feature","geometry":{"type":"Point","coordinates":[86.712584635658,27.0471071132684]},"properties":{"longitude":86.712584635658,"latitude":27.0471071132684,"what3words":"cheddar.doctored.cohesive","hf_type":"Sub Health Post","dist_name":"Udayapur","vdc_name1":"Laphagau","vdc_code1":"E-SAG-14-020","cartodb_id":164,"created_at":"2015-04-28T00:00:00.000Z","updated_at":"2015-04-28T00:00:00.000Z"}},
{"type":"Feature","geometry":{"type":"Point","coordinates":[86.6931271983573,26.9877791376215]},"properties":{"longitude":86.6931271983573,"latitude":26.9877791376215,"what3words":"unruly.inspiring.sapphires","hf_type":"Sub Health Post","dist_name":"Udayapur","vdc_name1":"Pokhari","vdc_code1":"E-SAG-14-028","cartodb_id":165,"created_at":"2015-04-28T00:00:00.000Z","updated_at":"2015-04-28T00:00:00.000Z"}},
{"type":"Feature","geometry":{"type":"Point","coordinates":[86.5894951553318,26.9523824120812]},"properties":{"longitude":86.5894951553318,"latitude":26.9523824120812,"what3words":"landfall.parties.subversive","hf_type":"Sub Health Post","dist_name":"Udayapur","vdc_name1":"Valayadanda","vdc_code1":"E-SAG-14-044","cartodb_id":166,"created_at":"2015-04-28T00:00:00.000Z","updated_at":"2015-04-28T00:00:00.000Z"}},
{"type":"Feature","geometry":{"type":"Point","coordinates":[86.7405188795233,26.9856785358006]},"properties":{"longitude":86.7405188795233,"latitude":26.9856785358006,"what3words":"recurrence.purer.guardhouse","hf_type":"Sub Health Post","dist_name":"Udayapur","vdc_name1":"Aaptar","vdc_code1":"E-SAG-14-001","cartodb_id":167,"created_at":"2015-04-28T00:00:00.000Z","updated_at":"2015-04-28T00:00:00.000Z"}},
{"type":"Feature","geometry":{"type":"Point","coordinates":[86.7430960825439,26.9300554404254]},"properties":{"longitude":86.7430960825439,"latitude":26.9300554404254,"what3words":"hamper.selectively.outfits","hf_type":"Sub Health Post","dist_name":"Udayapur","vdc_name1":"Khanbu","vdc_code1":"E-SAG-14-019","cartodb_id":168,"created_at":"2015-04-28T00:00:00.000Z","updated_at":"2015-04-28T00:00:00.000Z"}},
{"type":"Feature","geometry":{"type":"Point","coordinates":[86.678624597673,26.916016388363]},"properties":{"longitude":86.678624597673,"latitude":26.916016388363,"what3words":"toying.workmanlike.gains","hf_type":"Sub Health Post","dist_name":"Udayapur","vdc_name1":"Jalpachilaune","vdc_code1":"E-SAG-14-014","cartodb_id":169,"created_at":"2015-04-28T00:00:00.000Z","updated_at":"2015-04-28T00:00:00.000Z"}},
{"type":"Feature","geometry":{"type":"Point","coordinates":[86.7391527054836,26.8692962869724]},"properties":{"longitude":86.7391527054836,"latitude":26.8692962869724,"what3words":"beekeepers.retriever.domestics","hf_type":"Sub Health Post","dist_name":"Udayapur","vdc_name1":"Saune","vdc_code1":"E-SAG-14-032","cartodb_id":170,"created_at":"2015-04-28T00:00:00.000Z","updated_at":"2015-04-28T00:00:00.000Z"}},
{"type":"Feature","geometry":{"type":"Point","coordinates":[86.864830533291,26.878987768447]},"properties":{"longitude":86.864830533291,"latitude":26.878987768447,"what3words":"ultramodern.admirals.dribble","hf_type":"Sub Health Post","dist_name":"Udayapur","vdc_name1":"Sidhdipur","vdc_code1":"E-SAG-14-034","cartodb_id":171,"created_at":"2015-04-28T00:00:00.000Z","updated_at":"2015-04-28T00:00:00.000Z"}},
{"type":"Feature","geometry":{"type":"Point","coordinates":[86.820862225158,26.8101347344488]},"properties":{"longitude":86.820862225158,"latitude":26.8101347344488,"what3words":"magpies.apologetics.pedigreed","hf_type":"Sub Health Post","dist_name":"Udayapur","vdc_name1":"Hadiya","vdc_code1":"E-SAG-14-011","cartodb_id":172,"created_at":"2015-04-28T00:00:00.000Z","updated_at":"2015-04-28T00:00:00.000Z"}},
{"type":"Feature","geometry":{"type":"Point","coordinates":[86.7736365584156,26.7661492909459]},"properties":{"longitude":86.7736365584156,"latitude":26.7661492909459,"what3words":"fume.televised.nonsurgical","hf_type":"Sub Health Post","dist_name":"Udayapur","vdc_name1":"Jogidaha","vdc_code1":"E-SAG-14-016","cartodb_id":173,"created_at":"2015-04-28T00:00:00.000Z","updated_at":"2015-04-28T00:00:00.000Z"}},
{"type":"Feature","geometry":{"type":"Point","coordinates":[86.8886194777061,26.7582346342783]},"properties":{"longitude":86.8886194777061,"latitude":26.7582346342783,"what3words":"motioned.belonging.electorate","hf_type":"Sub Health Post","dist_name":"Udayapur","vdc_name1":"Sundarpur","vdc_code1":"E-SAG-14-036","cartodb_id":174,"created_at":"2015-04-28T00:00:00.000Z","updated_at":"2015-04-28T00:00:00.000Z"}},
{"type":"Feature","geometry":{"type":"Point","coordinates":[86.9370889659491,26.8210062774601]},"properties":{"longitude":86.9370889659491,"latitude":26.8210062774601,"what3words":"blandness.invariants.diploma","hf_type":"Sub Health Post","dist_name":"Udayapur","vdc_name1":"Bashaha","vdc_code1":"E-SAG-14-006","cartodb_id":175,"created_at":"2015-04-28T00:00:00.000Z","updated_at":"2015-04-28T00:00:00.000Z"}},
{"type":"Feature","geometry":{"type":"Point","coordinates":[86.9635923291922,26.8878312035703]},"properties":{"longitude":86.9635923291922,"latitude":26.8878312035703,"what3words":"prided.stopwatch.deposited","hf_type":"Sub Health Post","dist_name":"Udayapur","vdc_name1":"Chaudandi","vdc_code1":"E-SAG-14-009","cartodb_id":176,"created_at":"2015-04-28T00:00:00.000Z","updated_at":"2015-04-28T00:00:00.000Z"}},
{"type":"Feature","geometry":{"type":"Point","coordinates":[87.0656320202845,26.8914804314993]},"properties":{"longitude":87.0656320202845,"latitude":26.8914804314993,"what3words":"eggshell.incontinent.overlapping","hf_type":"Sub Health Post","dist_name":"Udayapur","vdc_name1":"Katunjebawala","vdc_code1":"E-SAG-14-018","cartodb_id":177,"created_at":"2015-04-28T00:00:00.000Z","updated_at":"2015-04-28T00:00:00.000Z"}},
{"type":"Feature","geometry":{"type":"Point","coordinates":[86.984014035016,26.7868242601045]},"properties":{"longitude":86.984014035016,"latitude":26.7868242601045,"what3words":"scrubs.copied.declared","hf_type":"Sub Health Post","dist_name":"Udayapur","vdc_name1":"Tapeswori","vdc_code1":"E-SAG-14-038","cartodb_id":178,"created_at":"2015-04-28T00:00:00.000Z","updated_at":"2015-04-28T00:00:00.000Z"}},
{"type":"Feature","geometry":{"type":"Point","coordinates":[87.001955598104,26.7209478068892]},"properties":{"longitude":87.001955598104,"latitude":26.7209478068892,"what3words":"prototyping.writings.snowiest","hf_type":"Sub Health Post","dist_name":"Udayapur","vdc_name1":"Koshi Tappu Wildlife","vdc_code1":"E-SAG-14-046","cartodb_id":179,"created_at":"2015-04-28T00:00:00.000Z","updated_at":"2015-04-28T00:00:00.000Z"}},
{"type":"Feature","geometry":{"type":"Point","coordinates":[87.1276925222734,26.9090048717487]},"properties":{"longitude":87.1276925222734,"latitude":26.9090048717487,"what3words":"inspect.rear.prosthetic","hf_type":"Sub Health Post","dist_name":"Udayapur","vdc_name1":"Mainamiani","vdc_code1":"E-SAG-14-024","cartodb_id":180,"created_at":"2015-04-28T00:00:00.000Z","updated_at":"2015-04-28T00:00:00.000Z"}},
{"type":"Feature","geometry":{"type":"Point","coordinates":[86.3854538605801,27.0850753481457]},"properties":{"longitude":86.3854538605801,"latitude":27.0850753481457,"what3words":"economies.grandest.salvaged","hf_type":"Sub Health Post","dist_name":"Udayapur","vdc_name1":"Hardeni","vdc_code1":"E-SAG-14-012","cartodb_id":181,"created_at":"2015-04-28T00:00:00.000Z","updated_at":"2015-04-28T00:00:00.000Z"}},
{"type":"Feature","geometry":{"type":"Point","coordinates":[86.6264278863461,26.8391029003397]},"properties":{"longitude":86.6264278863461,"latitude":26.8391029003397,"what3words":"rotary.berated.joked","hf_type":"District Cold Room","dist_name":"Udayapur","vdc_name1":"TriyugaN.P.","vdc_code1":"E-SAG-14-043","cartodb_id":182,"created_at":"2015-04-28T00:00:00.000Z","updated_at":"2015-04-28T00:00:00.000Z"}},
{"type":"Feature","geometry":{"type":"Point","coordinates":[86.3863082812488,26.9278356332672]},"properties":{"longitude":86.3863082812488,"latitude":26.9278356332672,"what3words":"persons.mainline.dentistry","hf_type":"Sub Center","dist_name":"Udayapur","vdc_name1":"Katari","vdc_code1":"E-SAG-14-017","cartodb_id":183,"created_at":"2015-04-28T00:00:00.000Z","updated_at":"2015-04-28T00:00:00.000Z"}},
{"type":"Feature","geometry":{"type":"Point","coordinates":[86.6660736912017,27.0054332748697]},"properties":{"longitude":86.6660736912017,"latitude":27.0054332748697,"what3words":"spaghetti.exert.bungalow","hf_type":"Supply Center","dist_name":"Udayapur","vdc_name1":"Bhuttar","vdc_code1":"E-SAG-14-008","cartodb_id":184,"created_at":"2015-04-28T00:00:00.000Z","updated_at":"2015-04-28T00:00:00.000Z"}},
{"type":"Feature","geometry":{"type":"Point","coordinates":[86.4021133536861,26.9655509990285]},"properties":{"longitude":86.4021133536861,"latitude":26.9655509990285,"what3words":"resorted.kickers.consented","hf_type":"Primary Health Center","dist_name":"Udayapur","vdc_name1":"Katari","vdc_code1":"E-SAG-14-017","cartodb_id":185,"created_at":"2015-04-28T00:00:00.000Z","updated_at":"2015-04-28T00:00:00.000Z"}},
{"type":"Feature","geometry":{"type":"Point","coordinates":[86.3281776385248,26.8998757054967]},"properties":{"longitude":86.3281776385248,"latitude":26.8998757054967,"what3words":"ensembles.excitingly.spud","hf_type":"Sub Health Post","dist_name":"Udayapur","vdc_name1":"Tribeni","vdc_code1":"E-SAG-14-042","cartodb_id":186,"created_at":"2015-04-28T00:00:00.000Z","updated_at":"2015-04-28T00:00:00.000Z"}},
{"type":"Feature","geometry":{"type":"Point","coordinates":[86.901503187402,26.8059337770572]},"properties":{"longitude":86.901503187402,"latitude":26.8059337770572,"what3words":"chords.washout.salaried","hf_type":"Sub Center","dist_name":"Udayapur","vdc_name1":"Beltar","vdc_code1":"E-SAG-14-007","cartodb_id":187,"created_at":"2015-04-28T00:00:00.000Z","updated_at":"2015-04-28T00:00:00.000Z"}},
{"type":"Feature","geometry":{"type":"Point","coordinates":[86.6570046019668,27.0782393947847]},"properties":{"longitude":86.6570046019668,"latitude":27.0782393947847,"what3words":"clockmaker.vague.stations","hf_type":"Sub Center","dist_name":"Udayapur","vdc_name1":"Balamta","vdc_code1":"E-SAG-14-002","cartodb_id":188,"created_at":"2015-04-28T00:00:00.000Z","updated_at":"2015-04-28T00:00:00.000Z"}},
{"type":"Feature","geometry":{"type":"Point","coordinates":[86.7019488604974,26.8094242761919]},"properties":{"longitude":86.7019488604974,"latitude":26.8094242761919,"what3words":"farces.descending.doubling","hf_type":"DPHO","dist_name":"Udayapur","vdc_name1":"TriyugaN.P.","vdc_code1":"E-SAG-14-043","cartodb_id":189,"created_at":"2015-04-28T00:00:00.000Z","updated_at":"2015-04-28T00:00:00.000Z"}},
{"type":"Feature","geometry":{"type":"Point","coordinates":[86.6531334993485,26.8132941402842]},"properties":{"longitude":86.6531334993485,"latitude":26.8132941402842,"what3words":"infinity.reclamation.detriment","hf_type":"Hospital","dist_name":"Udayapur","vdc_name1":"TriyugaN.P.","vdc_code1":"E-SAG-14-043","cartodb_id":190,"created_at":"2015-04-28T00:00:00.000Z","updated_at":"2015-04-28T00:00:00.000Z"}},
{"type":"Feature","geometry":{"type":"Point","coordinates":[86.8872584521162,26.8110603645525]},"properties":{"longitude":86.8872584521162,"latitude":26.8110603645525,"what3words":"intimidates.soundbites.angers","hf_type":"Primary Health Center","dist_name":"Udayapur","vdc_name1":"Beltar","vdc_code1":"E-SAG-14-007","cartodb_id":191,"created_at":"2015-04-28T00:00:00.000Z","updated_at":"2015-04-28T00:00:00.000Z"}},
{"type":"Feature","geometry":{"type":"Point","coordinates":[86.3475596210542,27.1320941928633]},"properties":{"longitude":86.3475596210542,"latitude":27.1320941928633,"what3words":"damply.fuzzy.gushes","hf_type":"Health Post","dist_name":"Udayapur","vdc_name1":"Yayankhu","vdc_code1":"E-SAG-14-045","cartodb_id":192,"created_at":"2015-04-28T00:00:00.000Z","updated_at":"2015-04-28T00:00:00.000Z"}},
{"type":"Feature","geometry":{"type":"Point","coordinates":[86.5613539582077,27.0924098666168]},"properties":{"longitude":86.5613539582077,"latitude":27.0924098666168,"what3words":"readable.employs.gums","hf_type":"Health Post","dist_name":"Udayapur","vdc_name1":"Rupatar","vdc_code1":"E-SAG-14-031","cartodb_id":193,"created_at":"2015-04-28T00:00:00.000Z","updated_at":"2015-04-28T00:00:00.000Z"}},
{"type":"Feature","geometry":{"type":"Point","coordinates":[86.5347872423339,27.0611590161548]},"properties":{"longitude":86.5347872423339,"latitude":27.0611590161548,"what3words":"tastiest.decorating.watchwords","hf_type":"Health Post","dist_name":"Udayapur","vdc_name1":"Lekhgau","vdc_code1":"E-SAG-14-022","cartodb_id":194,"created_at":"2015-04-28T00:00:00.000Z","updated_at":"2015-04-28T00:00:00.000Z"}},
{"type":"Feature","geometry":{"type":"Point","coordinates":[86.6832373413379,27.0885819551621]},"properties":{"longitude":86.6832373413379,"latitude":27.0885819551621,"what3words":"partridges.subordinates.laughed","hf_type":"Health Post","dist_name":"Udayapur","vdc_name1":"Balamta","vdc_code1":"E-SAG-14-002","cartodb_id":195,"created_at":"2015-04-28T00:00:00.000Z","updated_at":"2015-04-28T00:00:00.000Z"}},
{"type":"Feature","geometry":{"type":"Point","coordinates":[86.6741592902035,27.0168797544859]},"properties":{"longitude":86.6741592902035,"latitude":27.0168797544859,"what3words":"creeks.mushy.cuisine","hf_type":"Health Post","dist_name":"Udayapur","vdc_name1":"Bhuttar","vdc_code1":"E-SAG-14-008","cartodb_id":196,"created_at":"2015-04-28T00:00:00.000Z","updated_at":"2015-04-28T00:00:00.000Z"}},
{"type":"Feature","geometry":{"type":"Point","coordinates":[86.507383016698,26.9592579181148]},"properties":{"longitude":86.507383016698,"latitude":26.9592579181148,"what3words":"midbrain.diagnose.barons","hf_type":"Health Post","dist_name":"Udayapur","vdc_name1":"Pachchawati","vdc_code1":"E-SAG-14-027","cartodb_id":197,"created_at":"2015-04-28T00:00:00.000Z","updated_at":"2015-04-28T00:00:00.000Z"}},
{"type":"Feature","geometry":{"type":"Point","coordinates":[86.6667388655,26.7789579720498]},"properties":{"longitude":86.6667388655,"latitude":26.7789579720498,"what3words":"adjudicator.fertile.suntanned","hf_type":"Health Post","dist_name":"Udayapur","vdc_name1":"TriyugaN.P.","vdc_code1":"E-SAG-14-043","cartodb_id":198,"created_at":"2015-04-28T00:00:00.000Z","updated_at":"2015-04-28T00:00:00.000Z"}},
{"type":"Feature","geometry":{"type":"Point","coordinates":[86.6535068681703,26.9430706129462]},"properties":{"longitude":86.6535068681703,"latitude":26.9430706129462,"what3words":"beamy.lint.remarking","hf_type":"Health Post","dist_name":"Udayapur","vdc_name1":"Rauta","vdc_code1":"E-SAG-14-029","cartodb_id":199,"created_at":"2015-04-28T00:00:00.000Z","updated_at":"2015-04-28T00:00:00.000Z"}},
{"type":"Feature","geometry":{"type":"Point","coordinates":[87.0186229144862,26.8073992456399]},"properties":{"longitude":87.0186229144862,"latitude":26.8073992456399,"what3words":"spectating.rooting.campers","hf_type":"Health Post","dist_name":"Udayapur","vdc_name1":"Thoksila","vdc_code1":"E-SAG-14-041","cartodb_id":200,"created_at":"2015-04-28T00:00:00.000Z","updated_at":"2015-04-28T00:00:00.000Z"}},
{"type":"Feature","geometry":{"type":"Point","coordinates":[86.3971038633267,26.9856049092741]},"properties":{"longitude":86.3971038633267,"latitude":26.9856049092741,"what3words":"backhanded.unchained.certifies","hf_type":"Sub Health Post","dist_name":"Udayapur","vdc_name1":"Katari","vdc_code1":"E-SAG-14-017","cartodb_id":201,"created_at":"2015-04-28T00:00:00.000Z","updated_at":"2015-04-28T00:00:00.000Z"}},
{"type":"Feature","geometry":{"type":"Point","coordinates":[86.4438280069778,26.9718639362014]},"properties":{"longitude":86.4438280069778,"latitude":26.9718639362014,"what3words":"squashes.eyepiece.malt","hf_type":"Sub Health Post","dist_name":"Udayapur","vdc_name1":"Risku","vdc_code1":"E-SAG-14-030","cartodb_id":202,"created_at":"2015-04-28T00:00:00.000Z","updated_at":"2015-04-28T00:00:00.000Z"}},
{"type":"Feature","geometry":{"type":"Point","coordinates":[86.4813460653951,27.0257489572418]},"properties":{"longitude":86.4813460653951,"latitude":27.0257489572418,"what3words":"aforesaid.magpie.outlandish","hf_type":"Sub Health Post","dist_name":"Udayapur","vdc_name1":"Tawashree","vdc_code1":"E-SAG-14-039","cartodb_id":203,"created_at":"2015-04-28T00:00:00.000Z","updated_at":"2015-04-28T00:00:00.000Z"}},
{"type":"Feature","geometry":{"type":"Point","coordinates":[86.4922167387753,27.0795302387643]},"properties":{"longitude":86.4922167387753,"latitude":27.0795302387643,"what3words":"scarring.unreserved.embarrasses","hf_type":"Sub Health Post","dist_name":"Udayapur","vdc_name1":"Okhale","vdc_code1":"E-SAG-14-026","cartodb_id":204,"created_at":"2015-04-28T00:00:00.000Z","updated_at":"2015-04-28T00:00:00.000Z"}},
{"type":"Feature","geometry":{"type":"Point","coordinates":[86.4678326991655,27.0635166886738]},"properties":{"longitude":86.4678326991655,"latitude":27.0635166886738,"what3words":"retrieval.depleted.angled","hf_type":"Sub Health Post","dist_name":"Udayapur","vdc_name1":"Limpatar","vdc_code1":"E-SAG-14-023","cartodb_id":205,"created_at":"2015-04-28T00:00:00.000Z","updated_at":"2015-04-28T00:00:00.000Z"}},
{"type":"Feature","geometry":{"type":"Point","coordinates":[86.4323009544985,27.0554161001776]},"properties":{"longitude":86.4323009544985,"latitude":27.0554161001776,"what3words":"spendthrift.brawn.paddle","hf_type":"Sub Health Post","dist_name":"Udayapur","vdc_name1":"Sirise","vdc_code1":"E-SAG-14-035","cartodb_id":206,"created_at":"2015-04-28T00:00:00.000Z","updated_at":"2015-04-28T00:00:00.000Z"}},
{"type":"Feature","geometry":{"type":"Point","coordinates":[86.4320099661044,27.1131368521594]},"properties":{"longitude":86.4320099661044,"latitude":27.1131368521594,"what3words":"pretends.groove.recliners","hf_type":"Sub Health Post","dist_name":"Udayapur","vdc_name1":"ShorungChabise","vdc_code1":"E-SAG-14-033","cartodb_id":207,"created_at":"2015-04-28T00:00:00.000Z","updated_at":"2015-04-28T00:00:00.000Z"}},
{"type":"Feature","geometry":{"type":"Point","coordinates":[86.4006801024917,27.148833740486]},"properties":{"longitude":86.4006801024917,"latitude":27.148833740486,"what3words":"mushy.clutter.migrated","hf_type":"Sub Health Post","dist_name":"Udayapur","vdc_name1":"Lekhani","vdc_code1":"E-SAG-14-021","cartodb_id":208,"created_at":"2015-04-28T00:00:00.000Z","updated_at":"2015-04-28T00:00:00.000Z"}},
{"type":"Feature","geometry":{"type":"Point","coordinates":[86.563483023581,27.1316266780692]},"properties":{"longitude":86.563483023581,"latitude":27.1316266780692,"what3words":"dupe.puncher.upgraded","hf_type":"Sub Health Post","dist_name":"Udayapur","vdc_name1":"Thanagau","vdc_code1":"E-SAG-14-040","cartodb_id":209,"created_at":"2015-04-28T00:00:00.000Z","updated_at":"2015-04-28T00:00:00.000Z"}},
{"type":"Feature","geometry":{"type":"Point","coordinates":[86.5855458491816,27.1382808054746]},"properties":{"longitude":86.5855458491816,"latitude":27.1382808054746,"what3words":"limped.recollects.visibility","hf_type":"Sub Health Post","dist_name":"Udayapur","vdc_name1":"Basabote","vdc_code1":"E-SAG-14-005","cartodb_id":210,"created_at":"2015-04-28T00:00:00.000Z","updated_at":"2015-04-28T00:00:00.000Z"}},
{"type":"Feature","geometry":{"type":"Point","coordinates":[86.6379580701251,27.1215915166538]},"properties":{"longitude":86.6379580701251,"latitude":27.1215915166538,"what3words":"classification.paddled.additives","hf_type":"Sub Health Post","dist_name":"Udayapur","vdc_name1":"Tamlida","vdc_code1":"E-SAG-14-037","cartodb_id":211,"created_at":"2015-04-28T00:00:00.000Z","updated_at":"2015-04-28T00:00:00.000Z"}},
{"type":"Feature","geometry":{"type":"Point","coordinates":[86.5971014169547,27.1097695081969]},"properties":{"longitude":86.5971014169547,"latitude":27.1097695081969,"what3words":"ultra.exclaim.garnishes","hf_type":"Sub Health Post","dist_name":"Udayapur","vdc_name1":"Baraha","vdc_code1":"E-SAG-14-003","cartodb_id":212,"created_at":"2015-04-28T00:00:00.000Z","updated_at":"2015-04-28T00:00:00.000Z"}},
{"type":"Feature","geometry":{"type":"Point","coordinates":[86.5801032635744,27.0621446500329]},"properties":{"longitude":86.5801032635744,"latitude":27.0621446500329,"what3words":"bandages.tutored.helpfulness","hf_type":"Sub Health Post","dist_name":"Udayapur","vdc_name1":"Iname","vdc_code1":"E-SAG-14-013","cartodb_id":213,"created_at":"2015-04-28T00:00:00.000Z","updated_at":"2015-04-28T00:00:00.000Z"}},
{"type":"Feature","geometry":{"type":"Point","coordinates":[86.5598447428266,27.0159712481279]},"properties":{"longitude":86.5598447428266,"latitude":27.0159712481279,"what3words":"taxied.paper.arranges","hf_type":"Sub Health Post","dist_name":"Udayapur","vdc_name1":"Barai","vdc_code1":"E-SAG-14-004","cartodb_id":214,"created_at":"2015-04-28T00:00:00.000Z","updated_at":"2015-04-28T00:00:00.000Z"}},
{"type":"Feature","geometry":{"type":"Point","coordinates":[86.6227107937292,27.033720089046]},"properties":{"longitude":86.6227107937292,"latitude":27.033720089046,"what3words":"reconnects.daytime.ladybug","hf_type":"Sub Health Post","dist_name":"Udayapur","vdc_name1":"Nametar","vdc_code1":"E-SAG-14-025","cartodb_id":215,"created_at":"2015-04-28T00:00:00.000Z","updated_at":"2015-04-28T00:00:00.000Z"}},
{"type":"Feature","geometry":{"type":"Point","coordinates":[86.5730719858558,26.9757556339354]},"properties":{"longitude":86.5730719858558,"latitude":26.9757556339354,"what3words":"selected.excitedly.abroad","hf_type":"Sub Health Post","dist_name":"Udayapur","vdc_name1":"Dumre","vdc_code1":"E-SAG-14-010","cartodb_id":216,"created_at":"2015-04-28T00:00:00.000Z","updated_at":"2015-04-28T00:00:00.000Z"}},
{"type":"Feature","geometry":{"type":"Point","coordinates":[86.6896520472707,27.063160929662]},"properties":{"longitude":86.6896520472707,"latitude":27.063160929662,"what3words":"ambulances.purposeful.hobbyists","hf_type":"Sub Health Post","dist_name":"Udayapur","vdc_name1":"Jante","vdc_code1":"E-SAG-14-015","cartodb_id":217,"created_at":"2015-04-28T00:00:00.000Z","updated_at":"2015-04-28T00:00:00.000Z"}},
{"type":"Feature","geometry":{"type":"Point","coordinates":[86.712584635658,27.0471071132684]},"properties":{"longitude":86.712584635658,"latitude":27.0471071132684,"what3words":"cheddar.doctored.cohesive","hf_type":"Sub Health Post","dist_name":"Udayapur","vdc_name1":"Laphagau","vdc_code1":"E-SAG-14-020","cartodb_id":218,"created_at":"2015-04-28T00:00:00.000Z","updated_at":"2015-04-28T00:00:00.000Z"}},
{"type":"Feature","geometry":{"type":"Point","coordinates":[86.6931271983573,26.9877791376215]},"properties":{"longitude":86.6931271983573,"latitude":26.9877791376215,"what3words":"unruly.inspiring.sapphires","hf_type":"Sub Health Post","dist_name":"Udayapur","vdc_name1":"Pokhari","vdc_code1":"E-SAG-14-028","cartodb_id":219,"created_at":"2015-04-28T00:00:00.000Z","updated_at":"2015-04-28T00:00:00.000Z"}},
{"type":"Feature","geometry":{"type":"Point","coordinates":[86.5894951553318,26.9523824120812]},"properties":{"longitude":86.5894951553318,"latitude":26.9523824120812,"what3words":"landfall.parties.subversive","hf_type":"Sub Health Post","dist_name":"Udayapur","vdc_name1":"Valayadanda","vdc_code1":"E-SAG-14-044","cartodb_id":220,"created_at":"2015-04-28T00:00:00.000Z","updated_at":"2015-04-28T00:00:00.000Z"}},
{"type":"Feature","geometry":{"type":"Point","coordinates":[86.7405188795233,26.9856785358006]},"properties":{"longitude":86.7405188795233,"latitude":26.9856785358006,"what3words":"recurrence.purer.guardhouse","hf_type":"Sub Health Post","dist_name":"Udayapur","vdc_name1":"Aaptar","vdc_code1":"E-SAG-14-001","cartodb_id":221,"created_at":"2015-04-28T00:00:00.000Z","updated_at":"2015-04-28T00:00:00.000Z"}},
{"type":"Feature","geometry":{"type":"Point","coordinates":[86.7430960825439,26.9300554404254]},"properties":{"longitude":86.7430960825439,"latitude":26.9300554404254,"what3words":"hamper.selectively.outfits","hf_type":"Sub Health Post","dist_name":"Udayapur","vdc_name1":"Khanbu","vdc_code1":"E-SAG-14-019","cartodb_id":222,"created_at":"2015-04-28T00:00:00.000Z","updated_at":"2015-04-28T00:00:00.000Z"}},
{"type":"Feature","geometry":{"type":"Point","coordinates":[86.678624597673,26.916016388363]},"properties":{"longitude":86.678624597673,"latitude":26.916016388363,"what3words":"toying.workmanlike.gains","hf_type":"Sub Health Post","dist_name":"Udayapur","vdc_name1":"Jalpachilaune","vdc_code1":"E-SAG-14-014","cartodb_id":223,"created_at":"2015-04-28T00:00:00.000Z","updated_at":"2015-04-28T00:00:00.000Z"}},
{"type":"Feature","geometry":{"type":"Point","coordinates":[86.7391527054836,26.8692962869724]},"properties":{"longitude":86.7391527054836,"latitude":26.8692962869724,"what3words":"beekeepers.retriever.domestics","hf_type":"Sub Health Post","dist_name":"Udayapur","vdc_name1":"Saune","vdc_code1":"E-SAG-14-032","cartodb_id":224,"created_at":"2015-04-28T00:00:00.000Z","updated_at":"2015-04-28T00:00:00.000Z"}},
{"type":"Feature","geometry":{"type":"Point","coordinates":[86.864830533291,26.878987768447]},"properties":{"longitude":86.864830533291,"latitude":26.878987768447,"what3words":"ultramodern.admirals.dribble","hf_type":"Sub Health Post","dist_name":"Udayapur","vdc_name1":"Sidhdipur","vdc_code1":"E-SAG-14-034","cartodb_id":225,"created_at":"2015-04-28T00:00:00.000Z","updated_at":"2015-04-28T00:00:00.000Z"}},
{"type":"Feature","geometry":{"type":"Point","coordinates":[86.820862225158,26.8101347344488]},"properties":{"longitude":86.820862225158,"latitude":26.8101347344488,"what3words":"magpies.apologetics.pedigreed","hf_type":"Sub Health Post","dist_name":"Udayapur","vdc_name1":"Hadiya","vdc_code1":"E-SAG-14-011","cartodb_id":226,"created_at":"2015-04-28T00:00:00.000Z","updated_at":"2015-04-28T00:00:00.000Z"}},
{"type":"Feature","geometry":{"type":"Point","coordinates":[86.7736365584156,26.7661492909459]},"properties":{"longitude":86.7736365584156,"latitude":26.7661492909459,"what3words":"fume.televised.nonsurgical","hf_type":"Sub Health Post","dist_name":"Udayapur","vdc_name1":"Jogidaha","vdc_code1":"E-SAG-14-016","cartodb_id":227,"created_at":"2015-04-28T00:00:00.000Z","updated_at":"2015-04-28T00:00:00.000Z"}},
{"type":"Feature","geometry":{"type":"Point","coordinates":[86.8886194777061,26.7582346342783]},"properties":{"longitude":86.8886194777061,"latitude":26.7582346342783,"what3words":"motioned.belonging.electorate","hf_type":"Sub Health Post","dist_name":"Udayapur","vdc_name1":"Sundarpur","vdc_code1":"E-SAG-14-036","cartodb_id":228,"created_at":"2015-04-28T00:00:00.000Z","updated_at":"2015-04-28T00:00:00.000Z"}},
{"type":"Feature","geometry":{"type":"Point","coordinates":[86.9370889659491,26.8210062774601]},"properties":{"longitude":86.9370889659491,"latitude":26.8210062774601,"what3words":"blandness.invariants.diploma","hf_type":"Sub Health Post","dist_name":"Udayapur","vdc_name1":"Bashaha","vdc_code1":"E-SAG-14-006","cartodb_id":229,"created_at":"2015-04-28T00:00:00.000Z","updated_at":"2015-04-28T00:00:00.000Z"}},
{"type":"Feature","geometry":{"type":"Point","coordinates":[86.9635923291922,26.8878312035703]},"properties":{"longitude":86.9635923291922,"latitude":26.8878312035703,"what3words":"prided.stopwatch.deposited","hf_type":"Sub Health Post","dist_name":"Udayapur","vdc_name1":"Chaudandi","vdc_code1":"E-SAG-14-009","cartodb_id":230,"created_at":"2015-04-28T00:00:00.000Z","updated_at":"2015-04-28T00:00:00.000Z"}},
{"type":"Feature","geometry":{"type":"Point","coordinates":[87.0656320202845,26.8914804314993]},"properties":{"longitude":87.0656320202845,"latitude":26.8914804314993,"what3words":"eggshell.incontinent.overlapping","hf_type":"Sub Health Post","dist_name":"Udayapur","vdc_name1":"Katunjebawala","vdc_code1":"E-SAG-14-018","cartodb_id":231,"created_at":"2015-04-28T00:00:00.000Z","updated_at":"2015-04-28T00:00:00.000Z"}},
{"type":"Feature","geometry":{"type":"Point","coordinates":[86.984014035016,26.7868242601045]},"properties":{"longitude":86.984014035016,"latitude":26.7868242601045,"what3words":"scrubs.copied.declared","hf_type":"Sub Health Post","dist_name":"Udayapur","vdc_name1":"Tapeswori","vdc_code1":"E-SAG-14-038","cartodb_id":232,"created_at":"2015-04-28T00:00:00.000Z","updated_at":"2015-04-28T00:00:00.000Z"}},
{"type":"Feature","geometry":{"type":"Point","coordinates":[87.001955598104,26.7209478068892]},"properties":{"longitude":87.001955598104,"latitude":26.7209478068892,"what3words":"prototyping.writings.snowiest","hf_type":"Sub Health Post","dist_name":"Udayapur","vdc_name1":"Koshi Tappu Wildlife","vdc_code1":"E-SAG-14-046","cartodb_id":233,"created_at":"2015-04-28T00:00:00.000Z","updated_at":"2015-04-28T00:00:00.000Z"}},
{"type":"Feature","geometry":{"type":"Point","coordinates":[87.1276925222734,26.9090048717487]},"properties":{"longitude":87.1276925222734,"latitude":26.9090048717487,"what3words":"inspect.rear.prosthetic","hf_type":"Sub Health Post","dist_name":"Udayapur","vdc_name1":"Mainamiani","vdc_code1":"E-SAG-14-024","cartodb_id":234,"created_at":"2015-04-28T00:00:00.000Z","updated_at":"2015-04-28T00:00:00.000Z"}},
{"type":"Feature","geometry":{"type":"Point","coordinates":[86.3854538605801,27.0850753481457]},"properties":{"longitude":86.3854538605801,"latitude":27.0850753481457,"what3words":"economies.grandest.salvaged","hf_type":"Sub Health Post","dist_name":"Udayapur","vdc_name1":"Hardeni","vdc_code1":"E-SAG-14-012","cartodb_id":235,"created_at":"2015-04-28T00:00:00.000Z","updated_at":"2015-04-28T00:00:00.000Z"}},
{"type":"Feature","geometry":{"type":"Point","coordinates":[86.6264278863461,26.8391029003397]},"properties":{"longitude":86.6264278863461,"latitude":26.8391029003397,"what3words":"rotary.berated.joked","hf_type":"District Cold Room","dist_name":"Udayapur","vdc_name1":"TriyugaN.P.","vdc_code1":"E-SAG-14-043","cartodb_id":236,"created_at":"2015-04-28T00:00:00.000Z","updated_at":"2015-04-28T00:00:00.000Z"}},
{"type":"Feature","geometry":{"type":"Point","coordinates":[86.3863082812488,26.9278356332672]},"properties":{"longitude":86.3863082812488,"latitude":26.9278356332672,"what3words":"persons.mainline.dentistry","hf_type":"Sub Center","dist_name":"Udayapur","vdc_name1":"Katari","vdc_code1":"E-SAG-14-017","cartodb_id":237,"created_at":"2015-04-28T00:00:00.000Z","updated_at":"2015-04-28T00:00:00.000Z"}},
{"type":"Feature","geometry":{"type":"Point","coordinates":[86.6660736912017,27.0054332748697]},"properties":{"longitude":86.6660736912017,"latitude":27.0054332748697,"what3words":"spaghetti.exert.bungalow","hf_type":"Supply Center","dist_name":"Udayapur","vdc_name1":"Bhuttar","vdc_code1":"E-SAG-14-008","cartodb_id":238,"created_at":"2015-04-28T00:00:00.000Z","updated_at":"2015-04-28T00:00:00.000Z"}},
{"type":"Feature","geometry":{"type":"Point","coordinates":[86.4021133536861,26.9655509990285]},"properties":{"longitude":86.4021133536861,"latitude":26.9655509990285,"what3words":"resorted.kickers.consented","hf_type":"Primary Health Center","dist_name":"Udayapur","vdc_name1":"Katari","vdc_code1":"E-SAG-14-017","cartodb_id":239,"created_at":"2015-04-28T00:00:00.000Z","updated_at":"2015-04-28T00:00:00.000Z"}},
{"type":"Feature","geometry":{"type":"Point","coordinates":[86.3281776385248,26.8998757054967]},"properties":{"longitude":86.3281776385248,"latitude":26.8998757054967,"what3words":"ensembles.excitingly.spud","hf_type":"Sub Health Post","dist_name":"Udayapur","vdc_name1":"Tribeni","vdc_code1":"E-SAG-14-042","cartodb_id":240,"created_at":"2015-04-28T00:00:00.000Z","updated_at":"2015-04-28T00:00:00.000Z"}},
{"type":"Feature","geometry":{"type":"Point","coordinates":[86.901503187402,26.8059337770572]},"properties":{"longitude":86.901503187402,"latitude":26.8059337770572,"what3words":"chords.washout.salaried","hf_type":"Sub Center","dist_name":"Udayapur","vdc_name1":"Beltar","vdc_code1":"E-SAG-14-007","cartodb_id":241,"created_at":"2015-04-28T00:00:00.000Z","updated_at":"2015-04-28T00:00:00.000Z"}},
{"type":"Feature","geometry":{"type":"Point","coordinates":[86.6570046019668,27.0782393947847]},"properties":{"longitude":86.6570046019668,"latitude":27.0782393947847,"what3words":"clockmaker.vague.stations","hf_type":"Sub Center","dist_name":"Udayapur","vdc_name1":"Balamta","vdc_code1":"E-SAG-14-002","cartodb_id":242,"created_at":"2015-04-28T00:00:00.000Z","updated_at":"2015-04-28T00:00:00.000Z"}},
{"type":"Feature","geometry":{"type":"Point","coordinates":[86.7019488604974,26.8094242761919]},